area,city,country,hotel_star_rating,latitude,longitude,mmt_location_rating,mmt_review_count,mmt_review_score,mmt_traveller_type_review_count,mmt_tripadvisor_count,property_address,property_id,property_name,property_type,room_types,site_review_rating,traveller_rating,uniq_id,Location,Hospitality,Facilities,Cleanliness,Value for Money,Food
Hardasji Ki Magri,Udaipur,Hotel,1,24.581788,73.667805,0,0.0,4.5,Families:{{ratingSummaryInfo.miscMap['family']}}|Couples:{{ratingSummaryInfo.miscMap['couple']}}|Business:{{ratingSummaryInfo.miscMap['business']}}|Solo:{{ratingSummaryInfo.miscMap['solo']}}|Friends:{{ratingSummaryInfo.miscMap['friends']}},6.0,"Zion, F-17, Haridas Ji Ki Magri, Near Bal Vinay Mandir School , Hardasji Ki Magri",201302071713316867,Zion Home Stay,Hotel,Hotel,4.5,0,78ddf880bd7937d384ff278cc5b39d6e,0.0,0.0,0.0,0.0,0.0,0.0
Near Nai Gaon,Udaipur,Hotel,3,24.544342,73.644242,0,0.0,4.5,Families:{{ratingSummaryInfo.miscMap['family']}}|Couples:{{ratingSummaryInfo.miscMap['couple']}}|Business:{{ratingSummaryInfo.miscMap['business']}}|Solo:{{ratingSummaryInfo.miscMap['solo']}}|Friends:{{ratingSummaryInfo.miscMap['friends']}},34.0,"Udaipur-Jhadol Road , Near Nai Gaon",201312041703404727,Araliayas Resorts,Hotel,Hotel,4.5,0,9f9f9cbb2f7df8089b63d5cdeb257944,0.0,0.0,0.0,0.0,0.0,0.0
Near Bagore Ki Haveli,Udaipur,Hotel,2,24.579942,73.681953,0,0.0,0.0,Families:{{ratingSummaryInfo.miscMap['family']}}|Couples:{{ratingSummaryInfo.miscMap['couple']}}|Business:{{ratingSummaryInfo.miscMap['business']}}|Solo:{{ratingSummaryInfo.miscMap['solo']}}|Friends:{{ratingSummaryInfo.miscMap['friends']}},16.0,"23/208 Gangaur Ghat Near Bagore Ki Haveli , Near Bagore Ki Haveli",201407171324437682,Shri Udai Palace,Hotel,Hotel,0.0,0,b314bb7fa8bfb1ed306f517be21d729e,0.0,0.0,0.0,0.0,0.0,0.0
Dabok,Udaipur,Hotel,1,24.622607,73.855194,0,0.0,0.0,Families:|Couples:|Business:|Solo:|Friends:,3.0,"Opp GITS, NH-76, Bamaniya Khet, Dabok , Dabok",201407181538181173,SNP House Airport Hotel And Restaurant,Hotel,Hotel,0.0,0,e6f5bb3c2d76a78d978b9ceb0e31ec56,0.0,0.0,0.0,0.0,0.0,0.0
East Udaipur,Udaipur,Hotel,2,24.5801,73.6822,0,0.0,3.7,Families:{{ratingSummaryInfo.miscMap['family']}}|Couples:{{ratingSummaryInfo.miscMap['couple']}}|Business:{{ratingSummaryInfo.miscMap['business']}}|Solo:{{ratingSummaryInfo.miscMap['solo']}}|Friends:{{ratingSummaryInfo.miscMap['friends']}},139.0,"64 Ghangour Ghat, Opp Bagore Ki Haveli , East Udaipur",201409021258573714,Hotel Pichola Haveli (LAKE SIDE),Hotel,Hotel,3.7,0,63072c301427b6ca450d31eea127bcf0,0.0,0.0,0.0,0.0,0.0,0.0
Lake Palace Road,Udaipur,Hotel,1,24.575779,73.694363,0,0.0,4.1,Families:{{ratingSummaryInfo.miscMap['family']}}|Couples:{{ratingSummaryInfo.miscMap['couple']}}|Business:{{ratingSummaryInfo.miscMap['business']}}|Solo:{{ratingSummaryInfo.miscMap['solo']}}|Friends:{{ratingSummaryInfo.miscMap['friends']}},79.0,"OppSajjan Niwas Garden , Lake Palace Road",201409041608347125,Garden Hotel,Hotel,Hotel,4.1,0,d7362b28603b1c20454c6b3ecaa91fca,0.0,0.0,0.0,0.0,0.0,0.0
Lake Pichola,Udaipur,Hotel,3,24.567592,73.677763,0,0.0,0.0,Families:{{ratingSummaryInfo.miscMap['family']}}|Couples:{{ratingSummaryInfo.miscMap['couple']}}|Business:{{ratingSummaryInfo.miscMap['business']}}|Solo:{{ratingSummaryInfo.miscMap['solo']}}|Friends:{{ratingSummaryInfo.miscMap['friends']}},92.0,"Lake Pichola , Lake Pichola",201409041737227215,Jagmandir Island Palace,Hotel,Hotel,0.0,0,88c26b37f8af392c203700d8fc02a798,0.0,0.0,0.0,0.0,0.0,0.0
Udaipur,Udaipur,Hotel,3,24.5452,73.6784,0,0.0,3.9,Families:{{ratingSummaryInfo.miscMap['family']}}|Couples:{{ratingSummaryInfo.miscMap['couple']}}|Business:{{ratingSummaryInfo.miscMap['business']}}|Solo:{{ratingSummaryInfo.miscMap['solo']}}|Friends:{{ratingSummaryInfo.miscMap['friends']}},176.0,"Goverdhan Vilas , Udaipur",201409041749354262,Shikarbadi Heritage,Hotel,Hotel,3.9,0,38f275baaa223914769b73479d981551,0.0,0.0,0.0,0.0,0.0,0.0
"City Palace,The City Palace Complex",Udaipur,Hotel,4,24.574291,73.684014,0,0.0,4.8,Families:{{ratingSummaryInfo.miscMap['family']}}|Couples:{{ratingSummaryInfo.miscMap['couple']}}|Business:{{ratingSummaryInfo.miscMap['business']}}|Solo:{{ratingSummaryInfo.miscMap['solo']}}|Friends:{{ratingSummaryInfo.miscMap['friends']}},344.0,"Lake Pichola, The Palace Complex , Udaipur",201409041809296660,Shiv Niwas Palace,Hotel,Hotel,4.8,0,25c1973c76b18e2eef860230fd48d621,0.0,0.0,0.0,0.0,0.0,0.0
"Sukhadia Circule,New Fatehpura,Panchwati",Udaipur,Hotel,2,24.599427,73.69001,0,0.0,4.7,Families:{{ratingSummaryInfo.miscMap['family']}}|Couples:{{ratingSummaryInfo.miscMap['couple']}}|Business:{{ratingSummaryInfo.miscMap['business']}}|Solo:{{ratingSummaryInfo.miscMap['solo']}}|Friends:{{ratingSummaryInfo.miscMap['friends']}},12.0,"61-A New Fatehpura,Sukhadia Circle. , Sukhadia Circule",201409041814552011,Hotel The Archi,Hotel,Hotel,4.7,0,402dc013819dfe5193a0f97ea8e6d95e,0.0,0.0,0.0,0.0,0.0,0.0
National Highway No.-8,Udaipur,Hotel,1,24.615796,73.707245,0,0.0,0.0,Families:{{ratingSummaryInfo.miscMap['family']}}|Couples:{{ratingSummaryInfo.miscMap['couple']}}|Business:{{ratingSummaryInfo.miscMap['business']}}|Solo:{{ratingSummaryInfo.miscMap['solo']}}|Friends:{{ratingSummaryInfo.miscMap['friends']}},0.0,"Near Celebration Mall, Opp Parmanand Ashram, Bhuwana , National Highway No.-8",201409042126545939,Everest Resort,Hotel,Hotel,0.0,0,cbc02f395d2dd1c2b103db1dd755afdc,0.0,0.0,0.0,0.0,0.0,0.0
Gulab Bagh Road,Udaipur,Hotel,3,24.57687,73.694619,0,0.0,4.8,Families:{{ratingSummaryInfo.miscMap['family']}}|Couples:{{ratingSummaryInfo.miscMap['couple']}}|Business:{{ratingSummaryInfo.miscMap['business']}}|Solo:{{ratingSummaryInfo.miscMap['solo']}}|Friends:{{ratingSummaryInfo.miscMap['friends']}},33.0,"16, Guluab Bagh Road, Near Hariyali Restaurant , Gulab Bagh Road",201409050811541768,Hotel Mukund Villas,Hotel,Hotel,4.8,0,73b4e3da401bf2fe04327e858a78e08d,0.0,0.0,0.0,0.0,0.0,0.0
City Station Road,Udaipur,Hotel,1,24.5769,73.6995,0,0.0,2.0,Families:{{ratingSummaryInfo.miscMap['family']}}|Couples:{{ratingSummaryInfo.miscMap['couple']}}|Business:{{ratingSummaryInfo.miscMap['business']}}|Solo:{{ratingSummaryInfo.miscMap['solo']}}|Friends:{{ratingSummaryInfo.miscMap['friends']}},0.0,"1-E, City Station Road, Near Bus Stop , City Station Road",201409050830368926,Hotel Paras,Hotel,Hotel,2.0,0,985eee286abe777c60278b596677f5dd,0.0,0.0,0.0,0.0,0.0,0.0
Udaipur Railway Station,Udaipur,Hotel,1,24.573297,73.699672,0,0.0,4.5,Families:{{ratingSummaryInfo.miscMap['family']}}|Couples:{{ratingSummaryInfo.miscMap['couple']}}|Business:{{ratingSummaryInfo.miscMap['business']}}|Solo:{{ratingSummaryInfo.miscMap['solo']}}|Friends:{{ratingSummaryInfo.miscMap['friends']}},43.0,"20 A, Shivaji Nagar, Nr City Railway Station , Udaipur Railway Station",201409051253036999,Hotel Jagat Villa,Hotel,Hotel,4.5,0,00c709e14983da08dcf4fbc487155e41,0.0,0.0,0.0,0.0,0.0,0.0
Udaipole,Udaipur,Hotel,3,24.577341,73.700399,0,0.0,4.0,Families:{{ratingSummaryInfo.miscMap['family']}}|Couples:{{ratingSummaryInfo.miscMap['couple']}}|Business:{{ratingSummaryInfo.miscMap['business']}}|Solo:{{ratingSummaryInfo.miscMap['solo']}}|Friends:{{ratingSummaryInfo.miscMap['friends']}},46.0,"2b, Hotel Street, Opposite ICICI Bank, , Udaipole",201409051552355228,Shree Narayana,Hotel,Hotel,4.0,0,5792c43f1737416fc528db75f5f9ca4c,0.0,0.0,0.0,0.0,0.0,0.0
Udaipole,Udaipur,Hotel,1,24.5773,73.7014,0,0.0,0.0,Families:{{ratingSummaryInfo.miscMap['family']}}|Couples:{{ratingSummaryInfo.miscMap['couple']}}|Business:{{ratingSummaryInfo.miscMap['business']}}|Solo:{{ratingSummaryInfo.miscMap['solo']}}|Friends:{{ratingSummaryInfo.miscMap['friends']}},0.0,"33, Hotel Street, Udaipole , Udaipole",201409051812195388,Hotel Sunder,Hotel,Hotel,0.0,0,131b2b9c2f48017621dc55e3258e2e91,0.0,0.0,0.0,0.0,0.0,0.0
Udaipur,Udaipur,Hotel,1,24.583848,73.651997,0,0.0,0.0,Families:{{ratingSummaryInfo.miscMap['family']}}|Couples:{{ratingSummaryInfo.miscMap['couple']}}|Business:{{ratingSummaryInfo.miscMap['business']}}|Solo:{{ratingSummaryInfo.miscMap['solo']}}|Friends:{{ratingSummaryInfo.miscMap['friends']}},1.0,"Rampura Choraha ,",201409051924524939,Blue Mountain Hotel,Hotel,Hotel,0.0,0,c106f07e01296061d52751ceb34d7f05,0.0,0.0,0.0,0.0,0.0,0.0
Udiapol Road,Udaipur,Hotel,2,24.576239,73.696768,0,0.0,4.2,Families:{{ratingSummaryInfo.miscMap['family']}}|Couples:{{ratingSummaryInfo.miscMap['couple']}}|Business:{{ratingSummaryInfo.miscMap['business']}}|Solo:{{ratingSummaryInfo.miscMap['solo']}}|Friends:{{ratingSummaryInfo.miscMap['friends']}},16.0,"Inside Udiapole, Near Bus Stand , Udiapol Road",20140908115843553,Hotel Shalimar Palace,Hotel,Hotel,4.2,0,7fe13291c78c84e3707b8f4fa1d8a521,0.0,0.0,0.0,0.0,0.0,0.0
Udaipur,Udaipur,Hotel,3,24.609454,73.660771,0,0.0,4.5,Families:{{ratingSummaryInfo.miscMap['family']}}|Couples:{{ratingSummaryInfo.miscMap['couple']}}|Business:{{ratingSummaryInfo.miscMap['business']}}|Solo:{{ratingSummaryInfo.miscMap['solo']}}|Friends:{{ratingSummaryInfo.miscMap['friends']}},134.0,"Adjacent Shilp Gram, Near Fateh Sagar Lake, Rani Road ,",201409091041215282,Amantra Shilpi Resort,Hotel,Hotel,4.5,0,151fdf9c89ecb3d69c4d0e85019df964,0.0,0.0,0.0,0.0,0.0,0.0
Ambavgarh,Udaipur,Hotel,1,24.591,73.6805,0,0.0,0.0,Families:{{ratingSummaryInfo.miscMap['family']}}|Couples:{{ratingSummaryInfo.miscMap['couple']}}|Business:{{ratingSummaryInfo.miscMap['business']}}|Solo:{{ratingSummaryInfo.miscMap['solo']}}|Friends:{{ratingSummaryInfo.miscMap['friends']}},23.0,"F-18, Nr Fateh Sagar Lake,Opp Hiltop Hotel , Ambavgarh",201411101704476212,Hotel Kalika Palace,Hotel,Hotel,0.0,0,1d16ea31139bac48695066235db74b81,0.0,0.0,0.0,0.0,0.0,0.0
University Road,Udaipur,Hotel,1,24.5931,73.7098,0,0.0,0.0,Families:{{ratingSummaryInfo.miscMap['family']}}|Couples:{{ratingSummaryInfo.miscMap['couple']}}|Business:{{ratingSummaryInfo.miscMap['business']}}|Solo:{{ratingSummaryInfo.miscMap['solo']}}|Friends:{{ratingSummaryInfo.miscMap['friends']}},21.0,"1 new bhopal pura 100 ft road , University Road",201411131515162182,The Royal Inn,Hotel,Hotel,0.0,0,65b0a62fdbb143286b98c227c92d5448,0.0,0.0,0.0,0.0,0.0,0.0
Sethji Ki Kundal,Udaipur,Hotel,3,24.504458,73.657987,0,0.0,0.0,Families:{{ratingSummaryInfo.miscMap['family']}}|Couples:{{ratingSummaryInfo.miscMap['couple']}}|Business:{{ratingSummaryInfo.miscMap['business']}}|Solo:{{ratingSummaryInfo.miscMap['solo']}}|Friends:{{ratingSummaryInfo.miscMap['friends']}},110.0,"Opp Indo American Public School, Seth ji ki kundal Balicha NH8 , Sethji Ki Kundal",201411131703039761,The Amargarh Resort,Hotel,Hotel,0.0,0,7f9cc2be73f0d4e901561dfd2732cb66,0.0,0.0,0.0,0.0,0.0,0.0
City Palace,Udaipur,Hotel,2,24.578484,73.684716,0,0.0,3.9,Families:{{ratingSummaryInfo.miscMap['family']}}|Couples:{{ratingSummaryInfo.miscMap['couple']}}|Business:{{ratingSummaryInfo.miscMap['business']}}|Solo:{{ratingSummaryInfo.miscMap['solo']}}|Friends:{{ratingSummaryInfo.miscMap['friends']}},44.0,"15 Sahiwalo ki gali, Bhatiyani Chotta , City Palace",201411142133215025,Janak Niwas Guest House,Hotel,Hotel,3.9,0,313daf951687c68a89c578b2aea292bb,0.0,0.0,0.0,0.0,0.0,0.0
Udaipur,Udaipur,Hotel,1,24.585837,73.649029,0,0.0,0.0,Families:{{ratingSummaryInfo.miscMap['family']}}|Couples:{{ratingSummaryInfo.miscMap['couple']}}|Business:{{ratingSummaryInfo.miscMap['business']}}|Solo:{{ratingSummaryInfo.miscMap['solo']}}|Friends:{{ratingSummaryInfo.miscMap['friends']}},3.0,"Rampura Chourah ,Rampura Chauraha, Udaipur ,",201411181754318641,Adarsh Resort Udaipur,Hotel,Hotel,0.0,0,370c2d9e5698b6b22f58ffe5358e8690,0.0,0.0,0.0,0.0,0.0,0.0
Udaipur Railway Station,Udaipur,Hotel,4,24.5683,73.6991,0,0.0,4.5,Families:{{ratingSummaryInfo.miscMap['family']}}|Couples:{{ratingSummaryInfo.miscMap['couple']}}|Business:{{ratingSummaryInfo.miscMap['business']}}|Solo:{{ratingSummaryInfo.miscMap['solo']}}|Friends:{{ratingSummaryInfo.miscMap['friends']}},39.0,"City Railway Station, Udaipur , Udaipur Railway Station",201412101136318724,Le Roi Udaipur,Hotel,Hotel,4.5,0,8065a749a72b27dc3b435f7966c60d4f,0.0,0.0,0.0,0.0,0.0,0.0
DevraUdaipur  Rajasthan,Udaipur,Hotel,1,24.581349,73.682387,0,0.0,4.9,Families:{{ratingSummaryInfo.miscMap['family']}}|Couples:{{ratingSummaryInfo.miscMap['couple']}}|Business:{{ratingSummaryInfo.miscMap['business']}}|Solo:{{ratingSummaryInfo.miscMap['solo']}}|Friends:{{ratingSummaryInfo.miscMap['friends']}},259.0,"40 Ganesh Gati ,near Gadiya , DevraUdaipur Rajasthan",201412122058181495,Udai Haveli Guest House,Hotel,Hotel,4.9,0,a7cae6b6d041190192afdc66a175b55c,0.0,0.0,0.0,0.0,0.0,0.0
C.V. Singh Colony,Jaisalmer,Hotel,1,26.913377,70.918887,0,0.0,0.0,Family:0|Couple:0|Solo:0|Friends:0|Business:0,0.0,C.V.Singh Colony Opp Collector Office,201111031114538211,Hotel Suman Palace,Hotel,Hotel,0.0,0,ec377a9baa290b158958c4c0fb30643e,0.0,0.0,0.0,0.0,0.0,0.0
Neemrana,Neemrana,Hotel,1,0.0,0.0,0,0.0,0.0,0,0.0,Near Raath InternationalSchool Between Delhi  JaipurNational,201601061743146755,RAJ MAHAL RESORT,Hotel,Hotel,0.0,0,28816b246828bae05645998bc1e3a470,0.0,0.0,0.0,0.0,0.0,0.0
Mall Road,Manali,Hotel,2,32.245327,77.18922,0,0.0,0.0,0,3.0,"Adarsh Market, The Mall Manali",201512021800384436,New Adarsh Annexe,Hotel,Hotel,0.0,0,e8c486e8e92f06d111a04f9cd7f1ba3a,0.0,0.0,0.0,0.0,0.0,0.0
Hyderabad,Hyderabad,Hotel,1,17.438037,78.389837,Location:5.0,1.0,5.0,Family:0|Couple:0|Solo:0|Friends:0|Business:1,4.0,"Plot No 2, Brindavan Colony Near Nector Gardens, Madhapur Hyderabad",201409031836333494,Luxor Park,Hotel,Hotel,0.0,Location:5.0/5 | Hospitality:5.0/5 | Facilities:5.0/5 | Cleanliness:5.0/5 | Value for Money:5.0/5 | Food:5.0/5,b4469ff784a76b515987bdc5b803d726,5.0,5.0,5.0,5.0,5.0,5.0
CVS Colony,Jaisalmer,Hotel,2,26.8972,70.5993,0,0.0,0.0,Family:0|Couple:0|Solo:0|Friends:0|Business:0,40.0,"CVS Colony, jaisalmer CVS Colony",201210101234036532,Hotel Ajanta Haveli,Hotel,Hotel,0.0,0,80cf5ec53403e97bdd1844ed2be5cfb5,0.0,0.0,0.0,0.0,0.0,0.0
Mussoorie,Mussoorie,Hotel,2,30.454533,78.081074,Location:2.5,2.0,5.0,Family:0|Couple:0|Solo:1|Friends:0|Business:0,0.0,"Kulri, The Mall Rd, Mussoorie, Uttarakhand 248179",201411071306207022,Hotel PikNik,Hotel,Hotel,0.0,Location:2.5/5 | Hospitality:2.5/5 | Facilities:5.0/5 | Cleanliness:5.0/5 | Value for Money:2.5/5 | Food:2.5/5,eeb5c011b01c59b88bedf0af37df4b0f,2.5,2.5,5.0,5.0,2.5,2.5
Munnar,Munnar,Homestay,0,0.0,0.0,0,0.0,0.0,Family:0|Couple:0|Solo:0|Friends:0|Business:0,0.0,"The kenstar powerhouse, chithirapuram, Idduki, Kerala",201410311142384655,The Kensar Homestay,Homestay,Homestay,0.0,0,f4aec85e1bc4ab10e263794e9b3a908e,0.0,0.0,0.0,0.0,0.0,0.0
Gandhinagar,Gandhinagar,Hotel,1,23.23116,72.649365,0,0.0,0.0,0,0.0,"plot No 436, GH-5 Road Sector 16, Gandhinagar",201512081523376313,Hotel Vasundhra,Hotel,Hotel,0.0,0,3fc30efc41cfbf05882eaea8bc5d6072,0.0,0.0,0.0,0.0,0.0,0.0
Nahan,Nahan,Hotel,1,30.438177,77.577047,0,0.0,0.0,Family:0|Couple:0|Solo:0|Friends:0|Business:0,13.0,"paonta sahib , distt sirmour, HP",201409101327032320,Hotel Grand Riviera,Hotel,Hotel,0.0,0,9e3dbcb0019572488ac873ad0fc5e700,0.0,0.0,0.0,0.0,0.0,0.0
Jammu-Pathankot Highway NH-1A,Jammu,Hotel,4,32.596574,74.959716,Location:4.2,18.0,4.3,Family:6|Couple:5|Solo:5|Friends:0|Business:0,45.0,"NH A1, Vijaypur",201305251707236820,Hotel 17 Miles,Hotel,Hotel,0.0,Location:4.2/5 | Hospitality:4.3/5 | Facilities:4.2/5 | Cleanliness:4.4/5 | Value for Money:4.3/5 | Food:2.9/5,ba8836b9d3c62dcecf4c458781f6310b,4.2,4.3,4.2,4.4,4.3,2.9
Katra,Katra,Hotel,1,32.988833,74.928142,0,0.0,0.0,Family:0|Couple:0|Solo:0|Friends:0|Business:0,1.0,railway road kundorian,201410312258072069,Pratap Resort,Hotel,Hotel,0.0,0,ab7a1dc8277c4e2e0fe1e454f90b3301,0.0,0.0,0.0,0.0,0.0,0.0
Robinson,Palakkad,Hotel,3,10.769421,76.656247,Location:4.6,36.0,4.4,Family:11|Couple:4|Solo:16|Friends:0|Business:1,38.0,"Robinson Road, Palakkad Palakkad",201409290936463700,Sayoojyam Residency,Hotel,Hotel,0.0,Location:4.6/5 | Hospitality:4.3/5 | Facilities:4.2/5 | Cleanliness:4.3/5 | Value for Money:4.3/5 | Food:1.9/5,b07f4cbccc8b15d50af6f16af7ea8f90,4.6,4.3,4.2,4.3,4.3,1.9
Central avenue,Nagpur,Hotel,1,21.151397,79.098131,Location:3.8,32.0,3.1,Family:4|Couple:1|Solo:17|Friends:0|Business:2,26.0,"51, Central Avenue Opp. Gitanjali Cinema",201107170934056681,Hotel Woodlands,Hotel,Hotel,0.0,Location:3.8/5 | Hospitality:2.7/5 | Facilities:2.9/5 | Cleanliness:3.0/5 | Value for Money:2.8/5 | Food:2.0/5,41dbe2c4528031428219f8128a0fd604,3.8,2.7,2.9,3.0,2.8,2.0
Mussoorie,Mussoorie,Hotel,2,0.0,0.0,0,0.0,0.0,0,0.0,"picture palace, landour bazar, clock tower, mussoorie",201605101510114757,Hotel Castle View,Hotel,Hotel,0.0,0,66ea86ef57a017814277f26a934a81b8,0.0,0.0,0.0,0.0,0.0,0.0
Loghut Road,Manali,Hotel,2,32.248894,77.185981,Location:4.6,33.0,4.5,Family:15|Couple:12|Solo:1|Friends:0|Business:0,63.0,"CIRCUIT HOUSE, NEAR MALL ROAD Hadimba Road",200707121231385584,Snow Line,Hotel,Hotel,0.0,Location:4.6/5 | Hospitality:4.6/5 | Facilities:4.4/5 | Cleanliness:4.2/5 | Value for Money:4.5/5 | Food:1.4/5,38db340c70ecbdcaa081e41fa1153c60,4.6,4.6,4.4,4.2,4.5,1.4
Gandhinagar,Gandhinagar,Hotel,3,23.230765,72.646536,0,0.0,0.0,0,0.0,"Plot No448, 2nd Floor, Sector-16, Gandhinagar",20160118182420551,Hotel Neelkamal,Hotel,Hotel,0.0,0,6168aa88940e5d99bc941dfd1cada9ee,0.0,0.0,0.0,0.0,0.0,0.0
Suryanelli,Munnar,Hotel,3,10.042304,77.178551,Location:4.2,61.0,3.9,Family:24|Couple:17|Solo:0|Friends:0|Business:0,115.0,"Chinnakkanal, Munnar Chinnakanal, Munnar",200904230920306389,Holiday Heaven,Hotel,Hotel,0.0,Location:4.2/5 | Hospitality:4.1/5 | Facilities:3.8/5 | Cleanliness:3.9/5 | Value for Money:4.0/5 | Food:3.7/5,26844a9fd617b629d5dfa51c07f5ffe1,4.2,4.1,3.8,3.9,4.0,3.7
Ballygunge,Kolkata,Hotel,3,22.533848,88.353182,Location:4.1,47.0,3.7,Family:2|Couple:11|Solo:8|Friends:1|Business:3,71.0,"35A, Sarat Bose Road Bhawanipur,South Kolkata",200701111339522408,The Samilton,Hotel,Hotel,0.0,Location:4.1/5 | Hospitality:3.9/5 | Facilities:3.5/5 | Cleanliness:3.7/5 | Value for Money:3.5/5 | Food:2.9/5,a869e4a730a1ac8e933cde3feb0ddb6d,4.1,3.9,3.5,3.7,3.5,2.9
Mysore,Mysore,Hotel,1,12.421516,76.681695,Location:4.3,14.0,3.4,Family:6|Couple:6|Solo:0|Friends:2|Business:0,58.0,"State Highway 17, Karnataka",201412012105533887,Amblee Holiday Resort,Hotel,Hotel,0.0,Location:4.3/5 | Hospitality:3.2/5 | Facilities:3.0/5 | Cleanliness:2.9/5 | Value for Money:3.2/5 | Food:3.2/5,bafb9369e4780ed23b441c50f26993ba,4.3,3.2,3.0,2.9,3.2,3.2
Kunchithanny,Munnar,Hotel,3,9.989989,77.06995,Location:4.6,13.0,4.4,Family:3|Couple:8|Solo:0|Friends:1|Business:0,115.0,"Thekkinkanam, Munnar, Idukki, Kerala Kunjithanni, Munnar",201411061037569882,The Aruvi Resort,Hotel,Hotel,0.0,Location:4.6/5 | Hospitality:4.5/5 | Facilities:4.4/5 | Cleanliness:4.2/5 | Value for Money:4.5/5 | Food:4.2/5,81f2c50e5c8c0aa2873064f59b837896,4.6,4.5,4.4,4.2,4.5,4.2
Munnar,Munnar,Hotel,1,10.03104,77.047384,0,0.0,0.0,0,0.0,Power house Road,201503041447078684,Winter Casa Resort,Hotel,Hotel,0.0,0,462c3e9a6bfe8a7a69308c30dcfee261,0.0,0.0,0.0,0.0,0.0,0.0
Patnitop,Patnitop,Hotel,1,0.0,0.0,0,0.0,0.0,Family:0|Couple:0|Solo:0|Friends:0|Business:0,0.0,Near Nag Mandir,201512281813518579,Hotel Dogra Residency,Hotel,Hotel,0.0,0,d210a101f76e59bf4b2e5d9dfd8b4377,0.0,0.0,0.0,0.0,0.0,0.0
Panchavati,Nasik,Hotel,2,20.008587,73.794296,0,0.0,0.0,0,0.0,"Malviya Chowk, Panchavati, Nashik malviya chowk panchvati nashik",201602241249595004,Singhania Guest House,Hotel,Hotel,0.0,0,04f385a50ecbb2542f6cf204c7a6b5f9,0.0,0.0,0.0,0.0,0.0,0.0
Kasol,Kasol,Hotel,1,32.009549,77.316763,Location:3.0,3.0,2.6,Family:0|Couple:1|Solo:0|Friends:2|Business:0,0.0,New Kasol Parvati Valley Distt Kullu,201410262235164601,Hotel Krishna Palace,Hotel,Hotel,0.0,Location:3.0/5 | Hospitality:2.7/5 | Facilities:2.3/5 | Cleanliness:2.7/5 | Value for Money:2.7/5 | Food:2.7/5,e747c305962f4475a0f17e3714bf3654,3.0,2.7,2.3,2.7,2.7,2.7
Bhatinda,Bhatinda,Hotel,1,0.0,0.0,0,0.0,0.0,0,0.0,"Z-1, 10663, Gandhi Market, Near Railway Station Bhatinda",201606141553145123,DI Residency,Hotel,Hotel,0.0,0,1006e415fed9f96fa44823acc9bd1fba,0.0,0.0,0.0,0.0,0.0,0.0
Itanagar,Itanagar,Hotel,1,0.0,0.0,0,0.0,0.0,Family:0|Couple:0|Solo:0|Friends:0|Business:0,0.0,itanagar,201411261548083632,Hotel Kameng,Hotel,Hotel,0.0,0,958302e02dc10a4dedc58059f334f580,0.0,0.0,0.0,0.0,0.0,0.0
Nasik,Nasik,Hotel,1,0.0,0.0,0,0.0,0.0,0,0.0,"FCI Road, Near State Bank of India, Dist Nashik, Manmad",201604261849169602,Hotel Shree Leela International Manmad,Hotel,Hotel,0.0,0,6ae45e6e20c45c85f2c623b9287e97d5,0.0,0.0,0.0,0.0,0.0,0.0
Mallital,Nainital,Hotel,2,29.398018,79.444534,Location:2.8,9.0,3.1,Family:2|Couple:1|Solo:0|Friends:0|Business:0,31.0,"Alpine Club, Aryapatta Hill,Near Aurobindo Ashram Near Arbindo Ashram Ayarpatta Mallital",200701171726257696,Alpine Club,Hotel,Hotel,0.0,Location:2.8/5 | Hospitality:2.2/5 | Facilities:3.0/5 | Cleanliness:3.2/5 | Value for Money:2.8/5 | Food:0.8/5,750f0045a2c20cb170c760eb67469152,2.8,2.2,3.0,3.2,2.8,0.8
Chaturbhuj,Orchha,Hotel,1,25.351837,78.636118,Location:4.9,9.0,4.8,Family:3|Couple:2|Solo:1|Friends:0|Business:0,8.0,Behind Ram Raja temple near laxmi mandir road,20140827145816799,Hotel Sunset,Hotel,Hotel,0.0,Location:4.9/5 | Hospitality:4.8/5 | Facilities:4.8/5 | Cleanliness:4.2/5 | Value for Money:4.8/5 | Food:1.7/5,401149610d8655fc2cd25bad48063987,4.9,4.8,4.8,4.2,4.8,1.7
Junagarh,Junagarh,Hotel,1,21.523497,70.455288,0,0.0,0.0,Family:0|Couple:0|Solo:0|Friends:0|Business:0,14.0,Opp. ST Stand,20120302102158449,Hotel Vishala,Hotel,Hotel,0.0,0,a8cb36629663b9751371e47e8ed06cef,0.0,0.0,0.0,0.0,0.0,0.0
Hawa Beach,Kovalam and Poovar,Hotel,3,8.38637,76.978122,Location:4.6,88.0,3.5,Family:44|Couple:20|Solo:4|Friends:2|Business:1,153.0,"Hawa Beach, Kovalam Hawa Beach, Kovalam",201105281718097826,Hotel Pappukutty Beach Resort,Hotel,Hotel,0.0,Location:4.6/5 | Hospitality:3.2/5 | Facilities:3.2/5 | Cleanliness:3.2/5 | Value for Money:3.3/5 | Food:2.9/5,093fcb0a83c7d0c5cef7e582dd03964e,4.6,3.2,3.2,3.2,3.3,2.9
Kunchithanny,Munnar,Hotel,5,10.021297,77.054798,Location:5.0,1.0,4.3,Family:0|Couple:1|Solo:0|Friends:0|Business:0,0.0,"chithirapuram po, chithirapuram powerhousemunnar",201511041928362942,Broad Bean resort &spa,Hotel,Hotel,0.0,Location:5.0/5 | Hospitality:5.0/5 | Facilities:4.0/5 | Cleanliness:4.0/5 | Value for Money:5.0/5 | Food:0.0/5,5c0dfab5414d2c5907af7ffe517b627e,5.0,5.0,4.0,4.0,5.0,0.0
Chetna Nagar,Nasik,Hotel,1,19.9469,73.7654,0,0.0,0.0,0,0.0,"2ND FLOOR, DEEP LAXMI APARTMENT, PATHARDI PHATA, NASHIK",201604261545304151,Feel Like Home,Hotel,Hotel,0.0,0,ca7733af3c1ba5a11c83b501e94af3e2,0.0,0.0,0.0,0.0,0.0,0.0
Central Mysore,Mysore,Hotel,4,12.309186,76.662407,Location:4.8,190.0,4.5,Family:74|Couple:35|Solo:5|Friends:3|Business:0,404.0,"No. 3, Nethra Nivas, Nazarbad Road Mysore",200701181121147910,Hotel Sandesh The Prince,Hotel,Hotel,0.0,Location:4.8/5 | Hospitality:4.6/5 | Facilities:4.5/5 | Cleanliness:4.4/5 | Value for Money:4.5/5 | Food:2.1/5,6ae390ad377571a61ff61f5e1d21946d,4.8,4.6,4.5,4.4,4.5,2.1
Hyderabad,Hyderabad,Hotel,1,17.433,78.3681,0,0.0,0.0,0,0.0,"Road no 68,Jubilee Hills, Hyderabad",201409081648433226,alcove service apartments jubilee hills,Hotel,Hotel,0.0,0,93ce62082a7bb798827c3b2e4706af10,0.0,0.0,0.0,0.0,0.0,0.0
Jabalpur,Jabalpur,Hotel,3,23.1553,79.9257,0,0.0,0.0,Family:0|Couple:0|Solo:0|Friends:0|Business:0,27.0,"Nagpur Highway, Jabalpur(MP) Nagpur Highway",201109051859141131,Hotel Gulzar Towers,Hotel,Hotel,0.0,0,7607f483e7afde0ac8c9b37e0db3662d,0.0,0.0,0.0,0.0,0.0,0.0
Junagarh,Junagarh,Hotel,1,0.0,0.0,0,0.0,0.0,0,0.0,"Opp Minalvav, Jalaram temple, Virpur Virpur",201604291400049590,Murlidhar Guest House,Hotel,Hotel,0.0,0,ab82a77e7edc5baa27b6c9a256d1f602,0.0,0.0,0.0,0.0,0.0,0.0
Junagarh,Junagarh,Hotel,1,0.0,0.0,0,0.0,0.0,0,0.0,"Railway Station road, Junagadh",201605101140226934,Hotel Shree Krishna and Janta Lodge,Hotel,Hotel,0.0,0,9ab1c477216a0d70baa5a587fffd9ed6,0.0,0.0,0.0,0.0,0.0,0.0
Kodaikanal,Kodaikanal,Hotel,1,0.0,0.0,0,0.0,0.0,0,0.0,"observatory, Near Palivasal, kodaikanal",201411071934131298,Cubix Cottage,Hotel,Hotel,0.0,0,5620915590e2be4062cd53ef046e88ff,0.0,0.0,0.0,0.0,0.0,0.0
Airport Area,Kolkata,Hotel,3,22.622087,88.445603,Location:4.6,47.0,4.3,Family:13|Couple:14|Solo:15|Friends:0|Business:3,157.0,"RGM - AS/464, Main Arterial Road, New Town Main Arterial Road, New Town",201402141923514524,Pipal Tree Hotel,Hotel,Hotel,0.0,Location:4.6/5 | Hospitality:4.0/5 | Facilities:4.2/5 | Cleanliness:3.7/5 | Value for Money:4.0/5 | Food:2.8/5,f9b81a3698e13bf67ce175a1cca2caa7,4.6,4.0,4.2,3.7,4.0,2.8
West Carr,Kanyakumari,Hotel,3,8.083317,77.549958,Location:0.0,5.0,4.9,Family:4|Couple:0|Solo:0|Friends:0|Business:0,93.0,"2/83 B, WEST CAR STREET, Kanyakumari. KANYAKUMARI",201512291844186441,HOTEL TEMPLE CITI,Hotel,Hotel,0.0,Location:0.0/5 | Hospitality:0.0/5 | Facilities:4.8/5 | Cleanliness:4.8/5 | Value for Money:0.0/5 | Food:0.0/5,b4583b1a9927951310c9231996507187,0.0,0.0,4.8,4.8,0.0,0.0
Munnar Road,Munnar,Hotel,3,10.073772,77.064231,Location:3.9,21.0,4.0,Family:9|Couple:2|Solo:0|Friends:1|Business:0,97.0,"M.S.A Road, Munnar Munnar",200903171335481720,Archana Residency,Hotel,Hotel,0.0,Location:3.9/5 | Hospitality:4.8/5 | Facilities:3.8/5 | Cleanliness:4.1/5 | Value for Money:4.0/5 | Food:4.2/5,47cabceefd6752378dc3017a6ec310da,3.9,4.8,3.8,4.1,4.0,4.2
Pardih,Jamshedpur,Hotel,4,22.8629259,86.20517399999994,0,0.0,0.0,0,0.0,"H-33, Near Pardih Kali Mandir, Jamshedpur",201606151658568641,Hotel Golden Leaf Resort,Hotel,Hotel,0.0,0,9504c7ff42c7b2b4942329610290852b,0.0,0.0,0.0,0.0,0.0,0.0
Murudeshwar,Murudeshwar,Hotel,1,14.812762,74.13095,Location:2.7,3.0,2.1,Family:0|Couple:1|Solo:0|Friends:2|Business:0,3.0,"Church Beach Road, Murdeshwar,  Tal Bhatkal,  Dist Karwar - Karnataka",201412021143122643,Sea View Beach Resort,Hotel,Hotel,0.0,Location:2.7/5 | Hospitality:2.3/5 | Facilities:2.0/5 | Cleanliness:2.0/5 | Value for Money:2.3/5 | Food:2.0/5,2a2d4467639a9f53b5e1ee01f8b13673,2.7,2.3,2.0,2.0,2.3,2.0
Muvattupuzha,Muvattupuzha,Hotel,1,0.0,0.0,0,0.0,0.0,0,0.0,"Sheela Inn, Muvattupuzha",201411131229083147,Sheela Inn,Hotel,Hotel,0.0,0,bf088b1cfbbdaeeac6945b75dd472cda,0.0,0.0,0.0,0.0,0.0,0.0
Nathdwara,Nathdwara,Hotel,1,0.0,0.0,Location:4.3,3.0,3.9,Family:1|Couple:1|Solo:0|Friends:0|Business:0,4.0,Near Moti Mahal Chopati,201101211301104487,Hotel Sudarshan,Hotel,Hotel,0.0,Location:4.3/5 | Hospitality:3.5/5 | Facilities:3.3/5 | Cleanliness:4.3/5 | Value for Money:3.0/5 | Food:0.0/5,0342d6f7422f7000371d178a8e879c8f,4.3,3.5,3.3,4.3,3.0,0.0
Nathdwara,Nathdwara,Hotel,1,24.941213,73.823705,0,0.0,0.0,0,2.0,"Opp Lal Baugh, Bus Stand, National Highway-8 National Highway-8",201409050746288141,Hotel Gokuldham,Hotel,Hotel,0.0,0,15766916341bcbf089caf7971089141c,0.0,0.0,0.0,0.0,0.0,0.0
Mandawa,Mandawa,Hotel,3,28.053947,75.148114,Location:4.2,5.0,4.2,Family:1|Couple:2|Solo:0|Friends:2|Business:0,118.0,"Near Old Telephone Gali, Opp to Arya Samaj Bhawan, Ward No - 5",201408061739469127,Hotel Radhika Haveli Mandawa,Hotel,Hotel,0.0,Location:4.2/5 | Hospitality:4.2/5 | Facilities:4.2/5 | Cleanliness:4.2/5 | Value for Money:4.2/5 | Food:4.2/5,c09262af0680a8c629fdb0129d73918a,4.2,4.2,4.2,4.2,4.2,4.2
Daman,Daman,Hotel,1,20.438246,72.83072,0,0.0,0.0,0,0.0,"Bhandarwad Road,ganga mata Devka Beach nani daman",201508201143313242,Devka Beach Homestay,Hotel,Hotel,0.0,0,a8502d632daf3137f024a4b5a2fa0065,0.0,0.0,0.0,0.0,0.0,0.0
Central Hyderabad,Hyderabad,Hotel,2,17.425058,78.425487,Location:3.7,23.0,3.7,Family:5|Couple:0|Solo:5|Friends:0|Business:2,43.0,"Plot No-17, Lane beside TDP Office, Madhukunj Apartment Road No-2, Banjara Hills",201101181936485874,Falcons Nest- Banjara Hills,Hotel,Hotel,0.0,Location:3.7/5 | Hospitality:3.9/5 | Facilities:3.4/5 | Cleanliness:3.5/5 | Value for Money:3.9/5 | Food:3.2/5,7ec719ff475d0ec849c6e8b3444c0412,3.7,3.9,3.4,3.5,3.9,3.2
Najibabad,Najibabad,Hotel,1,0.0,0.0,0,0.0,0.0,0,0.0,"Haridwara Road, Najibabad",20160218110023475,Hotel Rajan,Hotel,Hotel,0.0,0,49f46af9e0b282ecb1c7d240e24957bf,0.0,0.0,0.0,0.0,0.0,0.0
Anachal,Munnar,Hotel,3,10.000891,77.06109,Location:4.8,6.0,4.9,Family:2|Couple:3|Solo:0|Friends:0|Business:0,56.0,"Maryland, Eatty city Road Anachal, Munnar",201508181541453156,Season7 The Nature Resort,Hotel,Hotel,0.0,Location:4.8/5 | Hospitality:5.0/5 | Facilities:5.0/5 | Cleanliness:4.0/5 | Value for Money:5.0/5 | Food:3.2/5,98a59d4aa2b7609f6307fe499a4a4f7b,4.8,5.0,5.0,4.0,5.0,3.2
Shimoga Dist,Shimoga,Hotel,1,0.0,0.0,0,0.0,0.0,Families:0|Couples:0|Business:0|Solo:0|Friends:0,0.0,"Bharathipura Post, Thirthahall , Shimoga Dist",201508201238349346&i=,Rainbow Hospitality Holiday Home NH 13,Hotel,Hotel,0.0,0,c9ddbdc6b641e35020bc5d163a666da8,0.0,0.0,0.0,0.0,0.0,0.0
Mcleodganj,Dharamshala,Hotel,3,32.229457,76.327405,4.5,36.0,3.8,Families:12|Couples:12|Business:1|Solo:0|Friends:0,221.0,"Main Road, Mcleodganj , Mcleodganj",200703311203122588&i=,Pride Surya Mountain Resort,Hotel,Hotel,0.0,Location:4.5/5 | Hospitality:3.6/5 | Facilities:3.4/5 | Cleanliness:3.9/5 | Value for Money:3.6/5 | Food:3.4/5,c16ae7efde2056d5ffef7b4e85325183,4.5,3.6,3.4,3.9,3.6,3.4
samod,Samode,Hotel,2,0.0,0.0,0,0.0,0.0,Families:|Couples:|Business:|Solo:|Friends:,0.0,"shlip colony , samod",20160204190301729&i=,Raj Haveli,Hotel,Hotel,0.0,0,ec31e7f0782ba94f245ff349d37abd78,0.0,0.0,0.0,0.0,0.0,0.0
O/s Chandpole,Udaipur,Hotel,1,24.57127,73.691544,4.8,4.0,4.1,Families:2|Couples:0|Business:0|Solo:0|Friends:0,316.0,"Hanuman Ghat , O/s Chandpole , O/s Chandpole",201111042005017402&i=,Hotel Panorma Guest House,Hotel,Hotel,0.0,Location:4.8/5 | Hospitality:4.5/5 | Facilities:4/5 | Cleanliness:4.2/5 | Value for Money:4.5/5 | Food:4.2/5,f6bcc5237aba570bf773bdee50390a3f,4.8,4.5,4.0,4.2,4.5,4.2
Muvattupuzha,Muvattupuzha,Hotel,1,0.0,0.0,0,0.0,0.0,Families:|Couples:|Business:|Solo:|Friends:,0.0,"Zeneith homestay, Muvattupuzha ,",201411101650316377&i=,Zeneith homestay,Hotel,Hotel,0.0,0,6c67ab6b421978633cb0d1312c953499,0.0,0.0,0.0,0.0,0.0,0.0
CHIKMAGALUR,Chikmagalur,Hotel,1,13.314376,75.770816,0,0.0,0.0,Families:|Couples:|Business:|Solo:|Friends:,0.0,"BYARAVALLI , CHIKMAGALUR",20151208120153175&i=,Travelers Bungalow Homestay,Hotel,Hotel,0.0,0,8e8aa3d9523252d5161ca19adb94b7a5,0.0,0.0,0.0,0.0,0.0,0.0
Sisarma,Udaipur,Hotel,1,24.560496,73.654664,0,0.0,0.0,Families:0|Couples:0|Business:0|Solo:0|Friends:0,215.0,"Mountain Ridge, Sisarma, Udaipur ,",201412091016284565&i=,Mountain Ridge,Hotel,Hotel,0.0,0,74b8c5a91d8e48ce5c0cd313be540797,0.0,0.0,0.0,0.0,0.0,0.0
silchar,Silchar,Hotel,1,24.826,92.797,4.5,2.0,3.9,Families:0|Couples:0|Business:0|Solo:1|Friends:0,31.0,"Park road NH 54 , silchar",201503051650462812&i=,Hotel Borail View,Hotel,Hotel,0.0,Location:4.5/5 | Hospitality:4/5 | Facilities:4/5 | Cleanliness:4/5 | Value for Money:4/5 | Food:4/5,78ba2584fff7139f59ab0264b17cf3c3,4.5,4.0,4.0,4.0,4.0,4.0
Varanasi,Varanasi,Hotel,1,25.307481,83.004387,0,0.0,0.0,Families:0|Couples:0|Business:0|Solo:0|Friends:0,0.0,"D35/13,Khari Kuan ,",20141230185438990&i=,Subh Laxmi PAying Guest House,Hotel,Hotel,0.0,0,247471e04a1d33247405597168762a1d,0.0,0.0,0.0,0.0,0.0,0.0
Harnai Beach,Dapoli,Hotel,2,17.780258,73.114559,4.7,23.0,4.4,Families:14|Couples:6|Business:0|Solo:0|Friends:1,90.0,"At Post - Murud,Taluka - Dapoli, district - Ratnagiri - 415712. , Murud Harnai",200905151632262067&i=,Lotus Beach Resort-Murud Harnai,Hotel,Hotel,0.0,Location:4.7/5 | Hospitality:4.6/5 | Facilities:4.3/5 | Cleanliness:4.6/5 | Value for Money:4.5/5 | Food:4/5,c567ce877c0f65174a15973d474f6df4,4.7,4.6,4.3,4.6,4.5,4.0
"Maidamgaon, Krishnapur",Guwahati,Hotel,1,26.115956,91.79831,0,0.0,0.0,Families:|Couples:|Business:|Solo:|Friends:,0.0,"Beltola - Basistha Rd , Maidamgaon, Krishnapur",201512081203422198&i=,HOTEL RUDRAKSH INN,Hotel,Hotel,0.0,0,257dc039618f4e0ce1e54f72a1ace090,0.0,0.0,0.0,0.0,0.0,0.0
Dharamshala,Dharamshala,Hotel,1,32.244113,76.332866,5,1.0,4.6,Families:0|Couples:0|Business:0|Solo:0|Friends:0,4.0,"Bhagsunag Dharamsala Kangra ,",201412101155369740&i=,Hotel Bhagsu View,Hotel,Hotel,0.0,Location:5/5 | Hospitality:5/5 | Facilities:4/5 | Cleanliness:5/5 | Value for Money:5/5 | Food:5/5,5065698f24f556bf796277248dd0f896,5.0,5.0,4.0,5.0,5.0,5.0
"Pangot,Bagar Talla",Nainital,Hotel,2,29.42301,79.427487,0,0.0,0.0,Families:|Couples:|Business:|Solo:|Friends:,0.0,"Pangot , Nainital",201601211414233749&i=,The Hidden Valley Camps and Resorts,Hotel,Hotel,0.0,0,80647d7365e16c8704455232427d37ff,0.0,0.0,0.0,0.0,0.0,0.0
Indore,Indore,Hotel,1,0.0,0.0,0,0.0,0.0,Families:|Couples:|Business:|Solo:|Friends:,0.0,"flat no - 201202 2floor, NV villa, 17-A, Silicon City, Rau Pithampura Road , Indore",201602241848533256&i=,Meraki Inn,Hotel,Hotel,0.0,0,2aecc482f6ec0959a23034982d83b90c,0.0,0.0,0.0,0.0,0.0,0.0
DEOGHAR,DEOGHAR,Hotel,1,0.0,0.0,0,0.0,0.0,Families:|Couples:|Business:|Solo:|Friends:,0.0,"Jalasar road, Deoghar ,",201502202157123135&i=,KAMLA HOTEL,Hotel,Hotel,0.0,0,6f77f2b8b6b780e641b1d132d9ba505b,0.0,0.0,0.0,0.0,0.0,0.0
Opposite Hotel TeaBud,Palampur,Hotel,1,32.2509,77.1845,0,0.0,0.0,Families:0|Couples:0|Business:0|Solo:0|Friends:0,0.0,"Lohna Hills , Opposite Hotel TeaBud",201412171222101142&i=,Hotel Holiday Home,Hotel,Hotel,0.0,0,c1fff1e9d9e9778cbe2cbb63bf798eb8,0.0,0.0,0.0,0.0,0.0,0.0
Sheegekhan Estate,Chikmagalur,Hotel,1,13.268812,75.719553,0,0.0,0.0,Families:0|Couples:0|Business:0|Solo:0|Friends:0,9.0,"Tex woods sheegekhan estate, next to muthodi wildlife sanctuary via malandar , Next to muthodi wildlife sanctuary via malandar",200901071434117323&i=,Tex Woods Resort,Hotel,Hotel,0.0,0,4f587a0f519f1be92b4c43b2b817ccbd,0.0,0.0,0.0,0.0,0.0,0.0
Old Mount Road,MountAbu,Hotel,1,24.589501,72.713886,0,0.0,0.0,Families:|Couples:|Business:|Solo:|Friends:,0.0,"hotel golden veena,near old barrier,mount abu,raj. , near old barrier mount abu",201603071315461451&i=,Hotel Golden Veena,Hotel,Hotel,0.0,0,3a7d5412f640c0e0912b1505a235354a,0.0,0.0,0.0,0.0,0.0,0.0
Akshay Colony,MountAbu,Hotel,1,24.5925,72.715556,0,0.0,0.0,Families:0|Couples:0|Business:0|Solo:0|Friends:0,3.0,"Nr Taxi Stand, Nr Taxi Stand, Akshay Colony , Akshay Colony",201111041503227950&i=,Couples Paradise Hotel,Hotel,Hotel,0.0,0,5358c1d755637599f79e9e6a4f7945e8,0.0,0.0,0.0,0.0,0.0,0.0
PITHORAGARH,Pithoragarh,Hotel,1,29.584397,80.218383,0,0.0,0.0,Families:0|Couples:0|Business:0|Solo:0|Friends:0,0.0,"VADDA ROAD, TILDHUKRI, , PITHORAGARH",201412301542191975&i=,Baakhlee,Hotel,Hotel,0.0,0,71bc4cf5abc80c11040a6d483304395f,0.0,0.0,0.0,0.0,0.0,0.0
"Sonarpura, Varanasi",Varanasi,Hotel,1,25.302,83.0075,0,0.0,0.0,Families:0|Couples:0|Business:0|Solo:0|Friends:0,35.0,"B 14/34, Mansarovar Ghat , Sonarpura, Varanasi",201501221051089411&i=,Leela Guest House,Hotel,Hotel,0.0,0,8e7ad4a7d3e443872315637f9e0c855d,0.0,0.0,0.0,0.0,0.0,0.0
"Renigunta RdÂ ,Ramanuja Circle,Renigunta Rd",Tirupati,Hotel,3,13.6294,79.4376,4.5,60.0,4.6,Families:17|Couples:19|Business:1|Solo:4|Friends:2,37.0,"19-3-10/A, Next to RE Bajaj Auto showroom, Renigunta road , Renigunta road",201504111535574226&i=,Best Western Tirupati,Hotel,Hotel,0.0,Location:4.5/5 | Hospitality:4.6/5 | Facilities:4.5/5 | Cleanliness:4.8/5 | Value for Money:4.6/5 | Food:4.4/5,913256fa0b6034c0775b72b3c9411e3f,4.5,4.6,4.5,4.8,4.6,4.4
Lachung,Lachung,Hotel,1,0.0,0.0,0,0.0,0.0,Families:|Couples:|Business:|Solo:|Friends:,0.0,"Tashi Yankhel,Singring Lachung,North Sikkim ,",201603241801397004&i=,Kongchen Tashi Yangkhel,Hotel,Hotel,0.0,0,01e2e86ee50451a53c83c846a1b3780c,0.0,0.0,0.0,0.0,0.0,0.0
Reewa Road,Satna,Hotel,1,24.573918,80.839918,4,1.0,4.9,Families:0|Couples:0|Business:0|Solo:0|Friends:0,16.0,"Reewa Road, Satna, Madhya Pardesh India , Reewa Road",20141021150948787&i=,Hotel Savera,Hotel,Hotel,0.0,Location:4/5 | Hospitality:5/5 | Facilities:5/5 | Cleanliness:5/5 | Value for Money:5/5 | Food:5/5,8b40da40d535789369f264849e987b65,4.0,5.0,5.0,5.0,5.0,5.0
B.H. Road,Shimoga,Hotel,3,13.92969,75.570971,4.6,127.0,4.4,Families:64|Couples:20|Business:4|Solo:2|Friends:1,300.0,"B.H. Road Opposite Vinayak theatre , Near Shimoga Bus Stand",201103251111598493&i=,Royal Orchid Central,Hotel,Hotel,0.0,Location:4.6/5 | Hospitality:4.4/5 | Facilities:4.3/5 | Cleanliness:4.5/5 | Value for Money:4.4/5 | Food:3.9/5,ced3f78393286567cd046f34aae75784,4.6,4.4,4.3,4.5,4.4,3.9
Fancy Bazar,Guwahati,Hotel,1,26.18128,91.741128,4.2,31.0,4.0,Families:6|Couples:2|Business:2|Solo:8|Friends:0,34.0,"Afsar Lane, S.S. Road, Fancy Bazaar , Fancy Bazaar",201111211029518974&i=,Hotel City Park,Hotel,Hotel,0.0,Location:4.2/5 | Hospitality:4.3/5 | Facilities:3.9/5 | Cleanliness:4/5 | Value for Money:4.2/5 | Food:3.6/5,d395949647a3bc3a7226cd9b718e3c54,4.2,4.3,3.9,4.0,4.2,3.6
Mcleodganj,Dharamshala,Hotel,1,32.221584,76.315655,0,0.0,0.0,Families:0|Couples:0|Business:0|Solo:0|Friends:0,4.0,"Village - Bhagsu, , Mcleodganj",2012092513401996&i=,Ravine Hotel,Hotel,Hotel,0.0,0,a93ee2f0fd2c89eba5c1ea188aeed43a,0.0,0.0,0.0,0.0,0.0,0.0
"Herur, Koppa Taluk",Chikmagalur,Hotel,1,12.982809,77.655044,0,0.0,0.0,Families:0|Couples:0|Business:0|Solo:0|Friends:0,23.0,"Guddada Bangale , Herur, Koppa Taluk",20150504102516693&i=,Prakruthi Homestay,Hotel,Hotel,0.0,0,0a004a969eea78e0db5566623fe9f8a9,0.0,0.0,0.0,0.0,0.0,0.0
City Center Main Road,Gwalior,Hotel,3,26.209875,78.187278,4.5,6.0,3.6,Families:0|Couples:2|Business:0|Solo:0|Friends:0,12.0,"City Center Main Road , City Center Main Road",20110830154913608&i=,Hotel Royal Inn,Hotel,Hotel,0.0,Location:4.5/5 | Hospitality:3.8/5 | Facilities:3.3/5 | Cleanliness:3.5/5 | Value for Money:3.8/5 | Food:3.6/5,e6140cea6f039447261c68090e502f99,4.5,3.8,3.3,3.5,3.8,3.6
Murai Mohalla,Indore,Hotel,1,22.711088,75.875616,3.5,28.0,2.5,Families:6|Couples:0|Business:1|Solo:6|Friends:0,3.0,"148, RNT Marg, Chawani, Near Dawa Bazaar Opp. School Ground , Near Dawa Bazaar Opp. School Ground",201108311832088884&i=,Hotel Rama Inn,Hotel,Hotel,0.0,Location:3.5/5 | Hospitality:2.7/5 | Facilities:2.4/5 | Cleanliness:2.3/5 | Value for Money:2.6/5 | Food:1.9/5,c66ea6da0bd3821c4016998f6a3a4da1,3.5,2.7,2.4,2.3,2.6,1.9
Near ICICI Bank,DEOGHAR,Hotel,1,24.511849,86.696999,0,0.0,0.0,Families:|Couples:|Business:|Solo:|Friends:,0.0,"Station Road B Deoghar , Near ICICI Bank",201502161559278016&i=,Hotel Park View,Hotel,Hotel,0.0,0,9a10bdf53eef463d695e73c9ac4cb73f,0.0,0.0,0.0,0.0,0.0,0.0
"Behind Gopal Midway, Mortakka",Indore,Hotel,3,22.2226,76.0387,0,0.0,0.0,Families:0|Couples:0|Business:0|Solo:0|Friends:0,25.0,"Indore Khandwa Road, , Behind Gopal Midway, Mortakka",201412301237459570&i=,Rewa Resort,Hotel,Hotel,0.0,0,6e6cfdcd34a178585fd18474df83c340,0.0,0.0,0.0,0.0,0.0,0.0
Thekkady,Idduki,Hotel,1,9.602654,77.165802,0,0.0,0.0,Families:|Couples:|Business:|Solo:|Friends:,6.0,"Thekkady Byepass Road, Kumily , Thekkady",201411132319564474&i=,Deervilla Home Stay,Hotel,Hotel,0.0,0,42a21b46c3616e1e6563932da0c9da35,0.0,0.0,0.0,0.0,0.0,0.0
"Opp Balaji Temple, Guwahati",Guwahati,Hotel,3,26.112876,91.750938,3,4.0,3.3,Families:1|Couples:1|Business:0|Solo:0|Friends:0,1.0,"Betkuchi, Lokhra,NH 37, , Opp Balaji Temple, Guwahati",201504281400087094&i=,Hotel Royal Heritage,Hotel,Hotel,0.0,Location:3/5 | Hospitality:3/5 | Facilities:3/5 | Cleanliness:3.8/5 | Value for Money:3/5 | Food:3.5/5,3c04ae9dbba7062841f05b88ab598940,3.0,3.0,3.0,3.8,3.0,3.5
Chikmagalur,Chikmagalur,Hotel,1,13.155903,75.511358,0,0.0,0.0,Families:|Couples:|Business:|Solo:|Friends:,0.0,"Javali PO, Mudigere Taluka , Chikmagalur",201512081111224987&i=,Honeyvale Homestay,Hotel,Hotel,0.0,0,2104614766a04b82ce73f8fd113835b3,0.0,0.0,0.0,0.0,0.0,0.0
"PO DHARIYAWAD, DISTT PRATAPGAR",Udaipur,Hotel,1,24.10184,74.441901,0,0.0,0.0,Families:0|Couples:0|Business:0|Solo:0|Friends:0,22.0,"120 kms from Udaipur, , PO DHARIYAWAD, DISTT PRATAPGAR",20141222164015155&i=,FORT DHARIYAWAD,Hotel,Hotel,0.0,0,40be5b94dc42b45c8be36e8615c87af7,0.0,0.0,0.0,0.0,0.0,0.0
Nainod,Indore,Hotel,1,22.736605,75.773124,4.5,4.0,4.3,Families:1|Couples:0|Business:1|Solo:0|Friends:0,0.0,"Nainod Road, near Gommatgiri, Indore-453112 MP,India ,",201411111955352107&i=,Dream World Resort,Hotel,Hotel,0.0,Location:4.5/5 | Hospitality:4.8/5 | Facilities:4/5 | Cleanliness:4.2/5 | Value for Money:4.8/5 | Food:4.2/5,a8231e196506d357e059bad8bc743901,4.5,4.8,4.0,4.2,4.8,4.2
Kohima,Kohima,Hotel,1,10.239291,77.497634,0,0.0,0.0,Families:0|Couples:0|Business:0|Solo:0|Friends:0,0.0,"Moonjikkal Bus Stand, kodaikanal ,",201411242009476891&i=,Hotel Ruby International,Hotel,Hotel,0.0,0,4e648671c8c3fa8e8c6d2f2f74d67835,0.0,0.0,0.0,0.0,0.0,0.0
"Udaipur Railway Station,West Udaipur,Udaipole",Udaipur,Hotel,1,24.576107,73.69744,3.9,17.0,3.7,Families:3|Couples:1|Business:1|Solo:0|Friends:0,71.0,"145/Hotel Street,Sararitu Vilas, , Inside Udaipole",201104011624426583&i=,Hotel Hadi Rani Palace,Hotel,Hotel,0.0,Location:3.9/5 | Hospitality:3.8/5 | Facilities:3.4/5 | Cleanliness:3.8/5 | Value for Money:3.8/5 | Food:3.5/5,d80395446d60a38446c8b949e02a7e88,3.9,3.8,3.4,3.8,3.8,3.5
Padav,Gwalior,Hotel,1,0.0,0.0,0,0.0,0.0,Families:|Couples:|Business:|Solo:|Friends:,0.0,"Gandhinagar, near blue dart office , Padav",201604201628141063&i=,Heaven Homes Service Apartment,Hotel,Hotel,0.0,0,d9fbe922572460e2a3b6df7edee3b612,0.0,0.0,0.0,0.0,0.0,0.0
Palampur,Palampur,Hotel,1,32.1011,76.5332,4.2,5.0,4.1,Families:2|Couples:1|Business:0|Solo:0|Friends:0,41.0,"Palampur District Kangra ,",20141228201933781&i=,Hotel Highland Regency,Hotel,Hotel,0.0,Location:4.2/5 | Hospitality:4.4/5 | Facilities:3.6/5 | Cleanliness:4.2/5 | Value for Money:4.4/5 | Food:4.2/5,573bb978a7fbcedbd77c1ac0cb78d76d,4.2,4.4,3.6,4.2,4.4,4.2
Renigunta Rd,Tirupati,Hotel,1,13.629449,79.423943,4.7,7.0,4.6,Families:5|Couples:0|Business:0|Solo:0|Friends:0,6.0,"169, T.P. Area , T.P. Area",201405091909372553&i=,Hotel Pasuparthy Residency,Hotel,Hotel,0.0,Location:4.7/5 | Hospitality:4.6/5 | Facilities:4.6/5 | Cleanliness:4.7/5 | Value for Money:4.6/5 | Food:4.4/5,d4efb6741392a715517c5128278c44c0,4.7,4.6,4.6,4.7,4.6,4.4
Treasure Island Mall,Indore,Hotel,3,22.720943,75.876476,4.7,3.0,4.0,Families:0|Couples:0|Business:0|Solo:0|Friends:0,6.0,"11/5, South Tukoganj, , Nath Mandir Road",201305301832193790&i=,Amrit Residency,Hotel,Hotel,0.0,Location:4.7/5 | Hospitality:4/5 | Facilities:3.7/5 | Cleanliness:4/5 | Value for Money:4/5 | Food:3.7/5,2251c796026074dd61373e491ade3086,4.7,4.0,3.7,4.0,4.0,3.7
Azamgarh,Azamgarh,Hotel,3,26.0529082,83.1760311,0,0.0,0.0,Families:|Couples:|Business:|Solo:|Friends:,0.0,"Opp Roadways Civil Lines ,",20151103202015700&i=,STARiHOTEL Azamgarh,Hotel,Hotel,0.0,0,b2ab56e9ad3932eaf0d79a222f671b1c,0.0,0.0,0.0,0.0,0.0,0.0
Lachung,Lachung,Hotel,1,27.6967,88.7484,4.4,9.0,3.9,Families:4|Couples:4|Business:0|Solo:0|Friends:1,14.0,"Near Lachung Police Station, Lachung , North Sikkim",201409081935054633&i=,Delight Hotels Royal Lachung,Hotel,Hotel,0.0,Location:4.4/5 | Hospitality:3.8/5 | Facilities:3.3/5 | Cleanliness:3.8/5 | Value for Money:3.8/5 | Food:4.2/5,101cfdf08af7de3f65235933656746ba,4.4,3.8,3.3,3.8,3.8,4.2
THEKKADY,Idduki,Hotel,1,0.0,0.0,0,0.0,0.0,Families:|Couples:|Business:|Solo:|Friends:,0.0,"KUMILY, THEKKADY , THEKKADY",201411112314262665&i=,DOLPHIN RESIDENCY,Hotel,Hotel,0.0,0,be33f317d3c52494a6e7c86cfef49780,0.0,0.0,0.0,0.0,0.0,0.0
chikamagalur,Chikmagalur,Hotel,1,0.0,0.0,0,0.0,0.0,Families:|Couples:|Business:|Solo:|Friends:,0.0,"prakash lodge opp ksrtc stand , chikamagalur",201601221756532832&i=,prakash lodge,Hotel,Hotel,0.0,0,9d08c1bd9ce32e3c8b293f734b362923,0.0,0.0,0.0,0.0,0.0,0.0
Opp. Darbar School,MountAbu,Hotel,1,24.53712,72.795208,2.9,8.0,2.9,Families:1|Couples:1|Business:0|Solo:0|Friends:0,0.0,"Nr. Abu road Bus Stand,Opp. Darbar School , Opp. Darbar School",201111061221101060&i=,Hotel Bhagwati International - 28 kms from Mt Abu,Hotel,Hotel,0.0,Location:2.9/5 | Hospitality:3.2/5 | Facilities:3.1/5 | Cleanliness:2.6/5 | Value for Money:3.2/5 | Food:2.8/5,f4415e50241ad47a02e8986d816d4d20,2.9,3.2,3.1,2.6,3.2,2.8
District Raigad,Kashid,Hotel,1,0.0,0.0,0,0.0,0.0,Families:0|Couples:0|Business:0|Solo:0|Friends:0,33.0,"Kashid , District Raigad",201503101750269292&i=,Nisarg Tourist Home,Hotel,Hotel,0.0,0,11e118c21940f6dd73c2b394829ddeee,0.0,0.0,0.0,0.0,0.0,0.0
Muvattupuzha,Muvattupuzha,Hotel,1,0.0,0.0,0,0.0,0.0,Families:|Couples:|Business:|Solo:|Friends:,0.0,"Ambadi tourist home, Muvattupuzha ,",201410311238382272&i=,Ambadi tourist home,Hotel,Hotel,0.0,0,eeb3fb0a1b8ebe131fcca0f45d7145e2,0.0,0.0,0.0,0.0,0.0,0.0
Dharwad,Dharwad,Hotel,1,15.44705,75.012814,4.3,3.0,3.8,Families:0|Couples:1|Business:0|Solo:0|Friends:0,6.0,"Tollnaka, PBRoad , Dharwad",201412221750576492&i=,KARISHMA RESIDENCY,Hotel,Hotel,0.0,Location:4.3/5 | Hospitality:3.7/5 | Facilities:3.7/5 | Cleanliness:3.7/5 | Value for Money:3.7/5 | Food:1.3/5,7cf8151bca6979ec21c07a96aa8d417a,4.3,3.7,3.7,3.7,3.7,1.3
Leh,NubraValley,Hotel,1,0.0,0.0,0,0.0,0.0,Families:|Couples:|Business:|Solo:|Friends:,0.0,"Hunder Village , Leh",201501142023089525&i=,Natures Nest North Luxury Camps,Hotel,Hotel,0.0,0,b838b16404204d855c67ea75bc742a78,0.0,0.0,0.0,0.0,0.0,0.0
Shimoga dist,Shimoga,Hotel,1,14.211721,74.872552,0,0.0,0.0,Families:|Couples:|Business:|Solo:|Friends:,19.0,"P O Box Talavata, Thalaguppa , Shimoga dist",201512051714184433&i=,Ajjanamane Homestay,Hotel,Hotel,0.0,0,02eff130cb47b78e5e358f07b4b84714,0.0,0.0,0.0,0.0,0.0,0.0
Ayarpatta,Nainital,Hotel,3,29.38999857379896,79.44644611772151,0,0.0,0.0,Families:|Couples:|Business:|Solo:|Friends:,0.0,"Vienna Lodge Comp, Dhampur Band. , Barapathar Rd, Nr,Cave Garden",20160222201628528&i=,Hotel Rio Grand,Hotel,Hotel,0.0,0,724aa5b4d3a06a03fb8bad3cb5594141,0.0,0.0,0.0,0.0,0.0,0.0
mount abu,MountAbu,Hotel,2,24.590026,72.711359,0,0.0,0.0,Families:|Couples:|Business:|Solo:|Friends:,0.0,"Near Polo Ground , mount abu",201511271323378355&i=,Hotel Shanti,Hotel,Hotel,0.0,0,c247a77b3919e245ba7f8c03c28c4c99,0.0,0.0,0.0,0.0,0.0,0.0
Sea Road Lane,Dwarika,Hotel,1,22.248106,68.956723,0,0.0,0.0,Families:|Couples:|Business:|Solo:|Friends:,0.0,"Opp Lords Hotel , Sea Road Lane",201505121324546987&i=,Hotel Sea View,Hotel,Hotel,0.0,0,1932dbe7eec9b62e91c4164bbccad3d8,0.0,0.0,0.0,0.0,0.0,0.0
"Hi Tech City,Kondapur,Madhapur,HITEC City",WeekendGetawaysAroundHyderabad,Hotel,3,17.44572,78.392557,4.2,26.0,4.0,Families:3|Couples:4|Business:1|Solo:5|Friends:0,5.0,"Swamy Ayappa Society , Lane Opposite to Madhapur Petrol Bunk ,Plot No 1213, Hotel Opposite to HDFC , Madhapur",20140904141231212&i=,Horizon Residency,Hotel,Hotel,0.0,Location:4.2/5 | Hospitality:4.2/5 | Facilities:4/5 | Cleanliness:4.1/5 | Value for Money:4.2/5 | Food:3.3/5,c585ca890ddd8238235cc5a9ede51e4f,4.2,4.2,4.0,4.1,4.2,3.3
Kalaji Goraji,Udaipur,Hotel,1,24.575361,73.692129,0,0.0,0.0,Families:|Couples:|Business:|Solo:|Friends:,0.0,"Kalaji Goraji Lake Palace Rd, Brahmpuri, Udaipur ,",201411261905133114&i=,Hotel Love Kush,Hotel,Hotel,0.0,0,538efb3a0130722bfb435adf3a126bbc,0.0,0.0,0.0,0.0,0.0,0.0
Madurai,Madurai,Hotel,1,9.937187,78.144898,0,0.0,0.0,Families:0|Couples:0|Business:0|Solo:0|Friends:0,0.0,"No 4 5, Melur Road,KK Nagar, ,",201502051719376510&i=,Hotel Krishna Residency,Hotel,Hotel,0.0,0,19cca7a72644101dfa0e90f7b3c6864d,0.0,0.0,0.0,0.0,0.0,0.0
"PO Kalyani, Uttarkashi",Uttarkashi,Hotel,1,30.807394,78.450815,0,0.0,0.0,Families:|Couples:|Business:|Solo:|Friends:,56.0,"Village Kuflon, Sangamchatti , PO Kalyani, Uttarkashi",201512101528582741&i=,Kuflon Basics,Hotel,Hotel,0.0,0,39fe1e15f144951432ae7f5ef5436b42,0.0,0.0,0.0,0.0,0.0,0.0
Balur Post,Chikmagalur,Hotel,1,0.0,0.0,0,0.0,0.0,Families:|Couples:|Business:|Solo:|Friends:,0.0,"Kelahalli Estate , Balur Post",20151216123828855&i=,Koffeewoods Homestay,Hotel,Hotel,0.0,0,36fd9a97254d26ed7db2535f94f97801,0.0,0.0,0.0,0.0,0.0,0.0
Muvattupuzha,Muvattupuzha,Hotel,1,0.0,0.0,0,0.0,0.0,Families:|Couples:|Business:|Solo:|Friends:,0.0,"Deepika Inn, Muvattupuzha ,",201411101739443029&i=,Deepika Inn,Hotel,Hotel,0.0,0,22eb6c005236fe36948530b0ed91dc89,0.0,0.0,0.0,0.0,0.0,0.0
Rajendra Marg,MountAbu,Hotel,1,24.588845,72.712088,0,0.0,0.0,Families:0|Couples:0|Business:0|Solo:0|Friends:0,5.0,"Opp Taxi Stand, Mount Abu , Rajendra Marg",201411261354132324&i=,Hotel Neelkanth,Hotel,Hotel,0.0,0,9e9959177e91a0a4226b37c66820fe6e,0.0,0.0,0.0,0.0,0.0,0.0
56 Dukan,Indore,Hotel,3,22.725264,75.884699,4.8,56.0,4.4,Families:16|Couples:16|Business:6|Solo:4|Friends:0,38.0,"39, Race Course Road, Opp 56 Shops , Opp 56 Shops",201402191601121370&i=,Hotel Sapphire Star,Hotel,Hotel,0.0,Location:4.8/5 | Hospitality:4.3/5 | Facilities:4.3/5 | Cleanliness:4.6/5 | Value for Money:4.3/5 | Food:4.1/5,6c321962a168275cb0af1a034e2bbd47,4.8,4.3,4.3,4.6,4.3,4.1
palampur,Palampur,Hotel,1,0.0,0.0,0,0.0,0.0,Families:|Couples:|Business:|Solo:|Friends:,15.0,"chandpur village , palampur",201412231106283073&i=,Earth House,Hotel,Hotel,0.0,0,8d8feb6e90e2cc176e16b4e0ebcd6a4e,0.0,0.0,0.0,0.0,0.0,0.0
lohiya bazar,Gwalior,Hotel,1,26.195253,78.151206,3.2,5.0,3.0,Families:0|Couples:0|Business:1|Solo:2|Friends:0,0.0,"near Roxy pul , near Roxy pul",201111301526409639&i=,Hotel Shubham Continental,Hotel,Hotel,0.0,Location:3.2/5 | Hospitality:3/5 | Facilities:3/5 | Cleanliness:2.8/5 | Value for Money:3/5 | Food:3/5,c2dbe15a61ad2e6d768fcc6656a46c39,3.2,3.0,3.0,2.8,3.0,3.0
Dharamshala,Dharamshala,Hotel,1,32.244854,76.332726,0,0.0,0.0,Families:|Couples:|Business:|Solo:|Friends:,1.0,"Bhagsunag Mcleod Ganj , Dharamshala",201501061816426827&i=,OAK VIEW GUEST HOUSE,Hotel,Hotel,0.0,0,72b5a630573779aa2e5efc45175d736b,0.0,0.0,0.0,0.0,0.0,0.0
Udaipur-Rajasthan,Udaipur,Hotel,1,24.574937,73.699765,0,0.0,0.0,Families:0|Couples:0|Business:0|Solo:0|Friends:0,0.0,"Opposite Bharat Petrol pump , Udaipur-Rajasthan",201412152100259437&i=,Royal Hotel,Hotel,Hotel,0.0,0,39c55e596c9c60cb02b909b49503cf6c,0.0,0.0,0.0,0.0,0.0,0.0
Nainital,Nainital,Hotel,1,0.0,0.0,0,0.0,0.0,Families:|Couples:|Business:|Solo:|Friends:,0.0,"Mallital , Nainital ,",201411042042485113&i=,Hotel shanta regency,Hotel,Hotel,0.0,0,84801f7483c8c800f11f466d54a837e6,0.0,0.0,0.0,0.0,0.0,0.0
Tirupati,Tirupati,Hotel,1,0.0,0.0,0,0.0,0.0,Families:|Couples:|Business:|Solo:|Friends:,0.0,"Siva Jyothi Nagar, ,",201503301702042142&i=,Sri Himalasya Inn,Hotel,Hotel,0.0,0,b66e0ef1f863bb67efd91296082c38ce,0.0,0.0,0.0,0.0,0.0,0.0
Ratnagiri,Dapoli,Hotel,1,17.753197,73.187528,0,0.0,0.0,Families:|Couples:|Business:|Solo:|Friends:,0.0,"Homestay Samudraj Bunglaw,Dapoli,Ratnagiri , Ratnagiri",201201121332085003&i=,Home Stay Samudraj Bunglaw,Hotel,Hotel,0.0,0,7a0d59970d35a7e3f181dba421921409,0.0,0.0,0.0,0.0,0.0,0.0
"Cantt Station, Chetganj",Varanasi,Lodge,1,25.327417,82.989001,0,0.0,0.0,Families:0|Couples:0|Business:0|Solo:0|Friends:0,0.0,"Cantt Rd, Parede Kothi , Cantt Station, Chetganj",201501191746566911&i=,Anand Lodge,Lodge,Lodge,0.0,0,7591e03ea87a69436696c4136250b367,0.0,0.0,0.0,0.0,0.0,0.0
"nr, Khuni River Pandhar Kawada, Yavatmal",Yavatmal,Hotel,1,0.0,0.0,0,0.0,0.0,Families:|Couples:|Business:|Solo:|Friends:,0.0,"taurants Bar NH -no 7, Hydrabad rd, Yavatmal HO , nr, Khuni River Pandhar Kawada, Yavatmal",201411281704192438&i=,Trupti Restaurant and Bar and Ganesh Residency,Hotel,Hotel,0.0,0,7d3dc849d8e0b166908d76c00c68d55b,0.0,0.0,0.0,0.0,0.0,0.0
Athigundi Village,Chikmagalur,Hotel,1,13.2932,75.8418,2,1.0,3.5,Families:0|Couples:0|Business:0|Solo:0|Friends:0,14.0,"Prakruthi Estate, Sampide Kate , Athigundi Village",201412291546407021&i=,Kemmanagundi Homestay,Hotel,Hotel,0.0,Location:2/5 | Hospitality:5/5 | Facilities:2/5 | Cleanliness:3/5 | Value for Money:5/5 | Food:4/5,62d291fc2ab01664aac958cb6c9af0a9,2.0,5.0,2.0,3.0,5.0,4.0
"Mcleodganj,H H Dalai Lama Temple Road",Dharamshala,Hotel,3,32.254475,76.302009,4.3,12.0,4.0,Families:4|Couples:2|Business:0|Solo:0|Friends:1,34.0,"Nr Dalai Lama Security Quarters Past Dalai Lamas Palace Enroute Buddha House , Mcleodganj",200805031143084801&i=,The Horizon Villa- North,Hotel,Hotel,0.0,Location:4.3/5 | Hospitality:4.2/5 | Facilities:3.8/5 | Cleanliness:4.5/5 | Value for Money:4.1/5 | Food:4.1/5,0e069e0e155e6b608eae0473fd559415,4.3,4.2,3.8,4.5,4.1,4.1
Bhanwarkua Road,Indore,Hotel,3,22.693808,75.867159,4.8,5.0,4.6,Families:2|Couples:1|Business:0|Solo:1|Friends:0,6.0,"13, Professor Colony Bhanwarkua Road , Bhanwarkua Road",201409251758198090&i=,Golden Treat,Hotel,Hotel,0.0,Location:4.8/5 | Hospitality:4.8/5 | Facilities:4.4/5 | Cleanliness:4.6/5 | Value for Money:4.8/5 | Food:4.4/5,8d20795e383f27595eceb7647408298a,4.8,4.8,4.4,4.6,4.8,4.4
Lalitpur,Lalitpur,Hotel,2,24.701662,78.420967,3,1.0,3.5,Families:0|Couples:0|Business:0|Solo:0|Friends:0,1.0,"Anand Tower, Elite Crossing ,",201409301554145116&i=,Hotel Anand Residency,Hotel,Hotel,0.0,Location:3/5 | Hospitality:5/5 | Facilities:3/5 | Cleanliness:4/5 | Value for Money:5/5 | Food:4/5,2fbcad32af1e43e08cf2d5af4a35d8ad,3.0,5.0,3.0,4.0,5.0,4.0
Kalani Nagar,Indore,Hotel,1,22.7242976,75.82555079999997,0,0.0,0.0,Families:|Couples:|Business:|Solo:|Friends:,0.0,"225, Kalani Nagar , Indore",201601221351445806&i=,Green Tulip,Hotel,Hotel,0.0,0,f5f8fb93c95e0819d255ac778a02145d,0.0,0.0,0.0,0.0,0.0,0.0
Paltan Bazar,Guwahati,Hotel,2,26.176553,91.754105,4.4,5.0,3.7,Families:0|Couples:0|Business:1|Solo:3|Friends:0,16.0,"G S Road, Ulubari , G S Road, Ulubari, Opp A S T C Petrol Pump",201305221235201249&i=,Hotel Amrit Regency,Hotel,Hotel,0.0,Location:4.4/5 | Hospitality:4.2/5 | Facilities:3.2/5 | Cleanliness:3.4/5 | Value for Money:4.2/5 | Food:2.8/5,9b2a2282922ab3c26452aed4ece95a7e,4.4,4.2,3.2,3.4,4.2,2.8
South Tukoganj,Indore,Hotel,3,22.718142,75.872673,4.5,46.0,4.5,Families:4|Couples:2|Business:7|Solo:2|Friends:0,128.0,"12, RNT Marg , RNT Marg",200809291751449007&i=,Hotel Shreemaya,Hotel,Hotel,0.0,Location:4.5/5 | Hospitality:4.6/5 | Facilities:4.4/5 | Cleanliness:4.5/5 | Value for Money:4.6/5 | Food:4.8/5,b4e5bd278d2035dda09346533b1b1dee,4.5,4.6,4.4,4.5,4.6,4.8
Chikmagalur,Chikmagalur,Hotel,1,0.0,0.0,0,0.0,0.0,Families:|Couples:|Business:|Solo:|Friends:,0.0,"Near chikamagalur bus depo ,",201603181223233932&i=,Hotel Prakash,Hotel,Hotel,0.0,0,0d415ebc78f8205c2d76e24154df1d16,0.0,0.0,0.0,0.0,0.0,0.0
Guwahati,Guwahati,Hotel,4,26.132924,91.793251,4.7,3.0,4.9,Families:0|Couples:0|Business:1|Solo:0|Friends:0,41.0,"Wlreless, Beltola Basistha Road, , Guwahati",201409172333067543&i=,ROYALE de CASA,Hotel,Hotel,0.0,Location:4.7/5 | Hospitality:5/5 | Facilities:5/5 | Cleanliness:5/5 | Value for Money:5/5 | Food:5/5,d09b9672220f4d5fb0e6b1804628f1bc,4.7,5.0,5.0,5.0,5.0,5.0
Sarvritu Vilas,Udaipur,Hotel,1,24.575644,73.69761,0,0.0,0.0,Families:|Couples:|Business:|Solo:|Friends:,0.0,"2, Sarvritu Vilas, Inside Udiapole , Sarvritu Vilas",201409032041246932&i=,Hotel Sneh Palace,Hotel,Hotel,0.0,0,735e972582ab66fc37ef9f47f30d510d,0.0,0.0,0.0,0.0,0.0,0.0
Near Tower Chowk,DEOGHAR,Hotel,4,24.493031,86.694157,4.5,32.0,4.1,Families:23|Couples:5|Business:1|Solo:0|Friends:0,47.0,"R R Baxi Road, Near Tower Chowk , Near Tower Chowk",201309231259037619&i=,Clarks Inn Amrapali,Hotel,Hotel,0.0,Location:4.5/5 | Hospitality:4/5 | Facilities:4/5 | Cleanliness:4.4/5 | Value for Money:4/5 | Food:3.5/5,2301d1b042615c55eb7d067b77caba31,4.5,4.0,4.0,4.4,4.0,3.5
Valsad- 396001,Valsad,Hotel,1,20.611155,72.932739,4,3.0,4.2,Families:0|Couples:2|Business:0|Solo:0|Friends:0,0.0,"White House Lane,Bechar Road, , Valsad- 396001",201412231530185207&i=,HOTEL GRANDEUR,Hotel,Hotel,0.0,Location:4/5 | Hospitality:4.3/5 | Facilities:4/5 | Cleanliness:4.3/5 | Value for Money:4.3/5 | Food:4.3/5,61c2c4de63b58794497d17203bcf3ed5,4.0,4.3,4.0,4.3,4.3,4.3
Surajpole,Udaipur,Hotel,2,24.577736,73.701443,4.2,4.0,4.2,Families:2|Couples:0|Business:0|Solo:0|Friends:0,0.0,"On main road, 23 City Stations Road, Outside Surajpole, Udaipur - 313001 , Outside Surajpole",201407231302188306&i=,Hotel Surbhi Palace,Hotel,Hotel,0.0,Location:4.2/5 | Hospitality:4.2/5 | Facilities:4.2/5 | Cleanliness:4.2/5 | Value for Money:4.2/5 | Food:4.2/5,281dc9f1589f96a69a050c53597471ad,4.2,4.2,4.2,4.2,4.2,4.2
Kollam,Kollam,Hotel,1,0.0,0.0,0,0.0,0.0,Families:|Couples:|Business:|Solo:|Friends:,0.0,"Thannakal Mazhayum Road, Kollam ,",201411111711479420&i=,Raksha Heritage,Hotel,Hotel,0.0,0,25b71b23a914c887bb4bb7bb3a122e0d,0.0,0.0,0.0,0.0,0.0,0.0
Tirupati,Tirupati,Lodge,1,0.0,0.0,0,0.0,0.0,Families:|Couples:|Business:|Solo:|Friends:,0.0,"14-3-293/ A, Railway Station Road, Tirupati Ho, Opp Railway Deepam Canteen, Tirupati - ,",201411102047108071&i=,Raj Residency Deluxe Lodge,Lodge,Lodge,0.0,0,b8b155aa250710d125948f66a69c441c,0.0,0.0,0.0,0.0,0.0,0.0
Madhupur,Madhupur,Hotel,1,0.0,0.0,0,0.0,0.0,Families:|Couples:|Business:|Solo:|Friends:,0.0,"Thana More, Aangan Complex , Madhupur",201501121505554161&i=,Aangan Marraige Hall and Guest house,Hotel,Hotel,0.0,0,6b8bef647f7385b1f42c5560de116195,0.0,0.0,0.0,0.0,0.0,0.0
"Near Bus Stand, Akola-Nanded H",Washim,Hotel,1,20.1124,77.1368,5,2.0,4.5,Families:0|Couples:0|Business:0|Solo:0|Friends:0,0.0,"Washimkar Complex, Post Office , Near Bus Stand, Akola-Nanded H",201412151511554220&i=,Hotel Washimkar Executive,Hotel,Hotel,0.0,Location:5/5 | Hospitality:5/5 | Facilities:4.5/5 | Cleanliness:4.5/5 | Value for Money:5/5 | Food:3.5/5,0bfdb7ce680ce6029c99311fc2d05a77,5.0,5.0,4.5,4.5,5.0,3.5
Goverdhan Vila,Udaipur,Hotel,1,24.548287,73.674983,0,0.0,0.0,Families:|Couples:|Business:|Solo:|Friends:,67.0,"119 D, Shikarbadi Colony, Governdhan Villas , Governdhan Villas",201311301008443316&i=,Devraj Villa,Hotel,Hotel,0.0,0,d1970209dba85b30c030bf1e76a3dd95,0.0,0.0,0.0,0.0,0.0,0.0
Lake Pichola,Udaipur,Hotel,3,24.567592,73.677763,0,0.0,0.0,Families:0|Couples:0|Business:0|Solo:0|Friends:0,92.0,"Lake Pichola , The Palace Complex",201409041737227215&i=,Jagmandir Island Palace,Hotel,Hotel,0.0,0,5c6a8b66dd1df8dd0173caaf9da5b8ad,0.0,0.0,0.0,0.0,0.0,0.0
Nainital,Nainital,Hotel,3,29.344583,79.558343,0,0.0,0.0,Families:|Couples:|Business:|Solo:|Friends:,20.0,"Bhimtal ,",2015011515300417&i=,PRIM Resorts - Fredys Bungalow Nainital,Hotel,Hotel,0.0,0,d4bbc63f617aad0cd7d9bfb3650530df,0.0,0.0,0.0,0.0,0.0,0.0
Bhimtal,Nainital,Hotel,3,29.365122,79.551659,4.7,3.0,3.6,Families:2|Couples:1|Business:0|Solo:0|Friends:0,19.0,"Bhowali Road , Bhimtal Distt",200710251247428438&i=,"Shikha Inn Resort, Bhimtal, 20 kms from Nainital",Hotel,Hotel,0.0,Location:4.7/5 | Hospitality:3/5 | Facilities:3.7/5 | Cleanliness:3.7/5 | Value for Money:3/5 | Food:3.3/5,a1433d0e70238f484b402597a3e82c16,4.7,3.0,3.7,3.7,3.0,3.3
Bus Stand Road,Patiala,Hotel,1,30.34058,76.401074,3,3.0,2.1,Families:1|Couples:0|Business:0|Solo:0|Friends:0,3.0,"Bus Stand Road , Bus Stand Road",201409221434411660&i=,Kaka Hotel,Hotel,Hotel,0.0,Location:3/5 | Hospitality:2/5 | Facilities:2/5 | Cleanliness:2/5 | Value for Money:2/5 | Food:2/5,eb9e613738af551b05bd19f162b6cc87,3.0,2.0,2.0,2.0,2.0,2.0
Devguradia,Indore,Hotel,4,22.6476809,75.96106199999997,0,0.0,0.0,Families:|Couples:|Business:|Solo:|Friends:,0.0,"Gram Jamniya Khurd, Kampel Road, Ahead of Devguradia Temple , Ahead of Devguradiya Temple",201604071719235814&i=,Crescent Resort and Spa Indore,Hotel,Hotel,0.0,0,850b4c7795de1c43149cea5cd8945739,0.0,0.0,0.0,0.0,0.0,0.0
gupt talkies ynroad,Indore,Hotel,1,0.0,0.0,0,0.0,0.0,Families:|Couples:|Business:|Solo:|Friends:,2.0,"51 new dewat road opp chandra , gupt talkies ynroad",20151216095111438&i=,Hotel Divya Palace,Hotel,Hotel,0.0,0,314dfc5d8463c4f9ebe024eab84a9aeb,0.0,0.0,0.0,0.0,0.0,0.0
bhimavaram,Bhimavaram,Hotel,1,0.0,0.0,0,0.0,0.0,Families:|Couples:|Business:|Solo:|Friends:,0.0,"Balusumoodi, , bhimavaram",201601071251532872&i=,Hotel Pranams,Hotel,Hotel,0.0,0,b28e336d25381efd318017f5b7757934,0.0,0.0,0.0,0.0,0.0,0.0
Behind Parijat Niwas,Satna,Hotel,1,0.0,0.0,0,0.0,0.0,Families:|Couples:|Business:|Solo:|Friends:,0.0,"Bamhanganwa, Rewa Road Satna , Behind Parijat Niwas",201501211747597309&i=,Hotel Apaar Residency,Hotel,Hotel,0.0,0,de82064fc27b39307d75d85d1e9416db,0.0,0.0,0.0,0.0,0.0,0.0
Chikmaglur,Chikmagalur,Hotel,1,13.386439,75.767546,0,0.0,0.0,Families:0|Couples:0|Business:0|Solo:0|Friends:0,185.0,"Erealla Survey No 275 No 275, DasaraHalli Grama, Dasara Halli Grama Chikmagalur , Chikmaglur",20141110233206927&i=,The Spectrum,Hotel,Hotel,0.0,0,ba854f43a0b38fd1db86d72a60f2b9ea,0.0,0.0,0.0,0.0,0.0,0.0
Murshidabad,Baharampur,Hotel,1,24.0989,88.2577,0,0.0,0.0,Families:|Couples:|Business:|Solo:|Friends:,0.0,"40, KN Road Berhampore, , Murshidabad",201503211726568305&i=,Hotel Sonali Bangla,Hotel,Hotel,0.0,0,ce385ca24167e5cb1082a1c0426f80b9,0.0,0.0,0.0,0.0,0.0,0.0
"Main Road,Delwara Road,Circuit House Area",MountAbu,Hotel,3,24.595142,72.720989,3.4,41.0,3.4,Families:22|Couples:17|Business:0|Solo:0|Friends:1,78.0,"Behind Gujarat Circuit House, Near Kumarwara , Near Kumarwada",201310251311224224&i=,Shiv Villa,Hotel,Hotel,0.0,Location:3.4/5 | Hospitality:3.4/5 | Facilities:3.3/5 | Cleanliness:3.4/5 | Value for Money:3.4/5 | Food:3.1/5,9fc7afd102a850bff3914a770f7fdf41,3.4,3.4,3.3,3.4,3.4,3.1
"Old Bus Stand, Khandwa",Khandwa,Hotel,3,21.8207,76.3526,4.2,6.0,4.2,Families:2|Couples:0|Business:1|Solo:0|Friends:0,9.0,"Plot no8, Loharinaka Road , Old Bus Stand, Khandwa",201501201638137039&i=,Hotel Castle Inn,Hotel,Hotel,0.0,Location:4.2/5 | Hospitality:4/5 | Facilities:4.2/5 | Cleanliness:4.5/5 | Value for Money:4/5 | Food:4.2/5,5519f42bad0fdd712086e7bb447bd1fd,4.2,4.0,4.2,4.5,4.0,4.2
Tirupati,Tirupati,Hotel,1,0.0,0.0,0,0.0,0.0,Families:0|Couples:0|Business:0|Solo:0|Friends:0,11.0,"12/1, Pk Layout, Opp Srinivasam Complex Main Gate, Tirupati ,",201411071104071969&i=,Hotel Sushma Bording and Lodging,Hotel,Hotel,0.0,0,218a1f9739902f4aa04faff98466c0ca,0.0,0.0,0.0,0.0,0.0,0.0
M G Road,Guwahati,Hotel,1,26.192823,91.752398,4.8,13.0,4.0,Families:3|Couples:4|Business:2|Solo:1|Friends:0,78.0,"152,MGRoad,Opp Sati Radhika Park Main Gate, , Uzanbazar Riverside",201410301211254575&i=,Riverview Guest House,Hotel,Hotel,0.0,Location:4.8/5 | Hospitality:3.9/5 | Facilities:3.8/5 | Cleanliness:3.9/5 | Value for Money:3.9/5 | Food:4.1/5,62118dee65c4d70e0d93b40ff0ca8e27,4.8,3.9,3.8,3.9,3.9,4.1
"Polo Ground,Central Mount Abu",MountAbu,Hotel,3,24.592593,72.715625,4,50.0,4.0,Families:14|Couples:11|Business:0|Solo:1|Friends:0,97.0,"Opp .Polo ground,Nr.Gurudwara , Nr Gurudwara",201104061428193239&i=,HG Grandiose Hotel,Hotel,Hotel,0.0,Location:4/5 | Hospitality:4/5 | Facilities:3.9/5 | Cleanliness:4.1/5 | Value for Money:3.9/5 | Food:3.9/5,bb0a7db591a6d1acc6a0fce5fe8b4833,4.0,4.0,3.9,4.1,3.9,3.9
Cantt Road,Dharamshala,Hotel,1,32.218159,76.318479,0,0.0,0.0,Families:0|Couples:0|Business:0|Solo:0|Friends:0,12.0,"Cantt Road, District Kangra , District Kangra",201111211311556714&i=,Hotel Pine Valley,Hotel,Hotel,0.0,0,7b3265e21ee82a1bff393e8ac0e9d928,0.0,0.0,0.0,0.0,0.0,0.0
G N B Road,Guwahati,Hotel,2,26.178655,91.756422,4.5,8.0,4.2,Families:5|Couples:0|Business:0|Solo:1|Friends:0,3.0,"Dr. B Barooah Road,Ulubari , Ulubari",201304301805285680&i=,Hotel Green Valley,Hotel,Hotel,0.0,Location:4.5/5 | Hospitality:4.2/5 | Facilities:3.8/5 | Cleanliness:4.4/5 | Value for Money:4.2/5 | Food:3.9/5,f521eed3f11143b48140136414e0b62c,4.5,4.2,3.8,4.4,4.2,3.9
NewTehri,NewTehri,Lodge,1,0.0,0.0,0,0.0,0.0,Families:|Couples:|Business:|Solo:|Friends:,0.0,"Sursingdhar ,New Tehri ,",201512021042482496&i=,Himalayan Eco Lodge,Lodge,Lodge,0.0,0,3c1a326990b7fa7dfcf68ee2ccf89265,0.0,0.0,0.0,0.0,0.0,0.0
IDUKKI,Idduki,Hotel,1,9.60616,77.16684,0,0.0,0.0,Families:|Couples:|Business:|Solo:|Friends:,4.0,"KUMILY THEKKADY BYEPASS ROAD, THEKKADY , IDUKKI",201411132311152964&i=,The Makam Residencey,Hotel,Hotel,0.0,0,7dcf48a26ffca6f86120499af8778a3d,0.0,0.0,0.0,0.0,0.0,0.0
Mcleodganj,Dharamshala,Hotel,1,32.247138,76.332308,4.5,4.0,3.9,Families:0|Couples:2|Business:0|Solo:0|Friends:0,0.0,"Bhagsu Nag, Mcleodganj , Mcleodganj",201509171451012919&i=,Turkish Cottage,Hotel,Hotel,0.0,Location:4.5/5 | Hospitality:3.8/5 | Facilities:3.8/5 | Cleanliness:4/5 | Value for Money:3.8/5 | Food:4/5,709489cc10ce1d4532c9fc592cfd9ecf,4.5,3.8,3.8,4.0,3.8,4.0
Nainital,Nainital,Hotel,2,29.364899,79.551246,3,2.0,3.3,Families:0|Couples:0|Business:0|Solo:0|Friends:0,16.0,"Bhowali Road ,",200708311116298461&i=,Shikha Inn Resort,Hotel,Hotel,0.0,Location:3/5 | Hospitality:0/5 | Facilities:3.5/5 | Cleanliness:4/5 | Value for Money:3.5/5 | Food:0/5,1661cc5cb92ac8bca82ee8758e821803,3.0,0.0,3.5,4.0,3.5,0.0
Mt Abu Rd,MountAbu,Hotel,1,0.0,0.0,0,0.0,0.0,Families:0|Couples:0|Business:0|Solo:0|Friends:0,0.0,"Opp Chacha Museum, Shivaji Marg , Mt Abu Rd",201411061419314645&i=,Hotel Kiran Mount Abu,Hotel,Hotel,0.0,0,83ef8277bc14b8a353c47f59808e57bd,0.0,0.0,0.0,0.0,0.0,0.0
"OppAyurvedic Hospital, Udaipur",Udaipur,Hotel,1,0.0,0.0,0,0.0,0.0,Families:|Couples:|Business:|Solo:|Friends:,0.0,"34,Moti Chohta, , OppAyurvedic Hospital, Udaipur",201512301752538381&i=,FM Rooms Udaipur,Hotel,Hotel,0.0,0,2165a68d5b5914c5276518e5e98ea5ca,0.0,0.0,0.0,0.0,0.0,0.0
"Bhimtal Road, Bhowali,Nainital",Nainital,Hotel,1,0.0,0.0,0,0.0,0.0,Families:|Couples:|Business:|Solo:|Friends:,0.0,"Near Naini Bend, 2 kms , Bhimtal Road, Bhowali,Nainital",201512171351031398&i=,hotel avlokhan,Hotel,Hotel,0.0,0,b20ccca100ca7dda4fc858f206ce17fc,0.0,0.0,0.0,0.0,0.0,0.0
Thanniruhalla,Hassan,Hotel,3,12.995371,76.080464,4.3,30.0,4.3,Families:20|Couples:4|Business:0|Solo:1|Friends:0,57.0,"Tanneeruhalla, B.M. Road , B.M. Road",201310081552309966&i=,Hotel Mayura International,Hotel,Hotel,0.0,Location:4.3/5 | Hospitality:4.4/5 | Facilities:4.2/5 | Cleanliness:4.4/5 | Value for Money:4.4/5 | Food:4.4/5,9588e536d629b58c89ff55eb7c22a327,4.3,4.4,4.2,4.4,4.4,4.4
Saputara,Saputara,Hotel,3,20.526017,73.751857,3.6,32.0,3.5,Families:21|Couples:4|Business:0|Solo:0|Friends:1,15.0,"Uday Hill Resort, Saputara - Nasik Road, Hatgad Fort Area , Near Yograj Holiday Homes",20140912161920818&i=,Uday Hill Resort,Hotel,Hotel,0.0,Location:3.6/5 | Hospitality:3.2/5 | Facilities:3.2/5 | Cleanliness:3.8/5 | Value for Money:3.2/5 | Food:3.2/5,eb9cb82d81fcc0e56f99f5ce3021b046,3.6,3.2,3.2,3.8,3.2,3.2
Kalaji Goraji,Udaipur,Hotel,1,24.576246,73.691181,0,0.0,0.0,Families:|Couples:|Business:|Solo:|Friends:,0.0,"No3-4, Lake Palace Rd, Kalaji Goraji, Udaipur ,",201411261929293135&i=,Hotel Neelam Palace,Hotel,Hotel,0.0,0,0ff2996352802ea399fff6583a7cdc5d,0.0,0.0,0.0,0.0,0.0,0.0
Bhimtal,Nainital,Hotel,4,29.361723,79.541144,3.6,27.0,3.8,Families:19|Couples:7|Business:0|Solo:0|Friends:0,56.0,"Nal Damyanti Tal Road, Nishola Village , Bhimtal",201403241221064391&i=,Aamod Resort - Bhimtal,Hotel,Hotel,0.0,Location:3.6/5 | Hospitality:3.9/5 | Facilities:3.9/5 | Cleanliness:4.1/5 | Value for Money:3.9/5 | Food:3.8/5,61d522c22fe082cd3f78853c606e5a5f,3.6,3.9,3.9,4.1,3.9,3.8
Teh-Dharamshala,Dharamshala,Hotel,1,0.0,0.0,0,0.0,0.0,Families:|Couples:|Business:|Solo:|Friends:,0.0,"DHARAMKOT MCLOEDGANJ , Teh-Dharamshala",201501062115507070&i=,PAUL HOUSE,Hotel,Hotel,0.0,0,cb9bbae43897fe8b1ffb80f277885718,0.0,0.0,0.0,0.0,0.0,0.0
"Near GOVERDHAN SAGAR LAKE,",Udaipur,Hotel,2,24.535442,73.681425,0,0.0,0.0,Families:0|Couples:0|Business:0|Solo:0|Friends:0,0.0,"582-583, PENCILWALI BUILDG, , Near GOVERDHAN SAGAR LAKE,",201509301626219851&i=,Singhi Villa Guest House,Hotel,Hotel,0.0,0,d2631c16b343205e38717ddeba1e5b51,0.0,0.0,0.0,0.0,0.0,0.0
Ramgarh,Nainital,Hotel,2,29.4471236,79.5621,3,1.0,2.2,Families:0|Couples:0|Business:0|Solo:0|Friends:0,0.0,"Gagar, Ramgarh, Nainital ,",200701251431127893&i=,Kumaon Roop Resort- Ramgarh,Hotel,Hotel,0.0,Location:3/5 | Hospitality:0/5 | Facilities:2/5 | Cleanliness:3/5 | Value for Money:3/5 | Food:0/5,8081677d14d840eca7a39534612c6dcc,3.0,0.0,2.0,3.0,3.0,0.0
Near Platform 4 Railway Station,Gwalior,Hotel,1,26.215473,78.176453,4.7,6.0,4.5,Families:2|Couples:1|Business:2|Solo:0|Friends:1,16.0,"N-7 Gandhi Nagar , Near Platform 4 Railway Station",201407071522097482&i=,Gulmohar Guest House,Hotel,Hotel,0.0,Location:4.7/5 | Hospitality:4.7/5 | Facilities:4.2/5 | Cleanliness:4.5/5 | Value for Money:4.7/5 | Food:3.8/5,00791916d77c473dfdd19c2079f624c7,4.7,4.7,4.2,4.5,4.7,3.8
Dharamshala,Dharamshala,Hotel,1,32.23864,76.323527,0,0.0,0.0,Families:|Couples:|Business:|Solo:|Friends:,21.0,"Mcloedganj, Bhagsunag, Meleodganj ,",201410311912144659&i=,Hotel Buddhas Valley,Hotel,Hotel,0.0,0,c37ede56663e35a316764e02b26f98ce,0.0,0.0,0.0,0.0,0.0,0.0
Kashipur,Kashipur,Hotel,1,0.0,0.0,0,0.0,0.0,Families:|Couples:|Business:|Solo:|Friends:,0.0,"Bazpur Road, , Kashipur",201512301527063333&i=,Hotel Business Inn,Hotel,Hotel,0.0,0,a4cf610b8d46f4446686052f2b9b4d86,0.0,0.0,0.0,0.0,0.0,0.0
Nabin Nagar,Guwahati,Hotel,2,26.166284,91.77725599999997,0,0.0,0.0,Families:|Couples:|Business:|Solo:|Friends:,0.0,"Ashirwad Enclave,Lakhimi Path,Jonali,Zoo Road,Guwahati. , Lakhimi Path, Jonali, Guwahati",201602011428034898&i=,Ashirwad Homestay,Hotel,Hotel,0.0,0,6c1f97e6795c0651f3bb4423e5e94191,0.0,0.0,0.0,0.0,0.0,0.0
Churu,Churu,Hotel,1,28.301673,74.969177,4,1.0,4.6,Families:1|Couples:0|Business:0|Solo:0|Friends:0,91.0,"Behind Jain Market ,Churu Shekhavati , Shekhavati",201308261949188555&i=,Hotel Malji Ka Kamra,Hotel,Hotel,0.0,Location:4/5 | Hospitality:5/5 | Facilities:4/5 | Cleanliness:5/5 | Value for Money:5/5 | Food:5/5,df6bd3fa3a6d78c31a6ccf2d9ffcd2a5,4.0,5.0,4.0,5.0,5.0,5.0
Nainital,Nainital,Hotel,1,29.395323,79.458979,0,0.0,0.0,Families:0|Couples:0|Business:0|Solo:0|Friends:0,14.0,"Birla Chungi Chauraha, View point, Nainital ,",201411251838527418&i=,Snow View Huts,Hotel,Hotel,0.0,0,58f06140c0f66355ac044dec7eee54fe,0.0,0.0,0.0,0.0,0.0,0.0
Bhagsunag,Dharamshala,Hotel,2,32.243818,76.332525,4.2,4.0,3.5,Families:2|Couples:1|Business:0|Solo:0|Friends:0,1.0,"Bhagsunag, Opp Main Parking Stand , Bhagsunag, Mcleodganj",201210241448091478&i=,Vikrant Hotel & Restaurant,Hotel,Hotel,0.0,Location:4.2/5 | Hospitality:3.2/5 | Facilities:3.2/5 | Cleanliness:3.2/5 | Value for Money:3.2/5 | Food:4/5,a066779153b3bc3a93ffc54dbf99fdc4,4.2,3.2,3.2,3.2,3.2,4.0
malan pur,Gwalior,Hotel,3,26.280869,78.200239,4.2,22.0,4.0,Families:10|Couples:2|Business:1|Solo:2|Friends:0,83.0,"Link Road, New Bus Stand Road ,",200701211216441736&i=,Hotel Gwalior Regency,Hotel,Hotel,0.0,Location:4.2/5 | Hospitality:4/5 | Facilities:3.9/5 | Cleanliness:4/5 | Value for Money:4.1/5 | Food:4.1/5,879ed7787870b6ba6a818ad40aa8cc5e,4.2,4.0,3.9,4.0,4.1,4.1
Near Little Flower School,Kohima,Hotel,1,0.0,0.0,0,0.0,0.0,Families:0|Couples:0|Business:0|Solo:0|Friends:0,0.0,"NMH-P/C 55 Aradura Hill , Near Little Flower School",201506021620337164&i=,The Classic Aradura Inn,Hotel,Hotel,0.0,0,d6e134262fa6e04ba819b88ff03a9f25,0.0,0.0,0.0,0.0,0.0,0.0
Mallital,Nainital,Hotel,5,29.396467,79.444232,3.5,14.0,3.8,Families:6|Couples:1|Business:0|Solo:0|Friends:0,116.0,"Mallital, , Mallital",200701241720383058&i=,Arif Castles,Hotel,Hotel,0.0,Location:3.5/5 | Hospitality:4.1/5 | Facilities:3.9/5 | Cleanliness:3.8/5 | Value for Money:3.9/5 | Food:3.4/5,96b599721c9e96e2d46f501467ba45cd,3.5,4.1,3.9,3.8,3.9,3.4
PO Mehragaon,Nainital,Hotel,1,29.3659,79.535,0,0.0,0.0,Families:0|Couples:0|Business:0|Solo:0|Friends:0,62.0,"Village - Bhakgtura , PO Mehragaon",201503301450423544&i=,Green Glen,Hotel,Hotel,0.0,0,b145505ca60cd514e8e5e8f05d12b6a1,0.0,0.0,0.0,0.0,0.0,0.0
Mt Abu Rd,MountAbu,Hotel,3,24.582807,72.722581,3.6,5.0,2.6,Families:3|Couples:2|Business:0|Solo:0|Friends:0,62.0,"St Marry road, mount abu ,",201409131639084093&i=,Royale Palace,Hotel,Hotel,0.0,Location:3.6/5 | Hospitality:2.8/5 | Facilities:2.2/5 | Cleanliness:3.2/5 | Value for Money:2.8/5 | Food:2/5,f24f4c900915ff15a17c2314d0f763b0,3.6,2.8,2.2,3.2,2.8,2.0
"Plot No-1,Bhuvana By Pass Road",Udaipur,Hotel,1,0.0,0.0,0,0.0,0.0,Families:|Couples:|Business:|Solo:|Friends:,0.0,"Plot No-1,Bhuvana By Pass Road , Plot No-1,Bhuvana By Pass Road",201601221344571581&i=,Hotel Riddhi Inn,Hotel,Hotel,0.0,0,0b88e1bcd8e4b26963ab6591660606ff,0.0,0.0,0.0,0.0,0.0,0.0
"Somajiguda,Raj Bhawan Road,Central Hyderabad",WeekendGetawaysAroundHyderabad,Hotel,5,17.423613,78.462219,4.5,220.0,4.2,Families:62|Couples:56|Business:38|Solo:15|Friends:6,815.0,"22 Rajbhavan Road Somajiguda , Somajiguda",201003121612069677&i=,The Park Hyderabad,Hotel,Hotel,0.0,Location:4.5/5 | Hospitality:4/5 | Facilities:4.1/5 | Cleanliness:4.3/5 | Value for Money:4/5 | Food:4.1/5,358388e7ad356618f65669ba76a57b95,4.5,4.0,4.1,4.3,4.0,4.1
kashipur,Kashipur,Hotel,1,0.0,0.0,0,0.0,0.0,Families:|Couples:|Business:|Solo:|Friends:,0.0,"NH 74, Vaishali Colony, Ujjain , kashipur",201601150930344801&i=,Hotel royal inn,Hotel,Hotel,0.0,0,518ee85c38d5edca346a8475a776b769,0.0,0.0,0.0,0.0,0.0,0.0
"Begumpet,Chikoti Gardens,North Hyderabad",WeekendGetawaysAroundHyderabad,Hotel,3,17.444003,78.466197,4.2,29.0,4.1,Families:5|Couples:1|Business:3|Solo:4|Friends:0,37.0,"1-10-44/2, Chikoti Gardens, Begumpet , Chikoti Gardens",200701151541389442&i=,Kamat Lingapur Hotel,Hotel,Hotel,0.0,Location:4.2/5 | Hospitality:4.2/5 | Facilities:3.9/5 | Cleanliness:4.3/5 | Value for Money:4.2/5 | Food:4/5,e58e47bb925d90212b2942f5b799957b,4.2,4.2,3.9,4.3,4.2,4.0
Renigunta Rd,Tirupati,Hotel,4,13.625793,79.431632,4.5,257.0,4.3,Families:116|Couples:37|Business:4|Solo:9|Friends:2,272.0,"#45, Near Ramanuja Circle, Renigunta Road , Tirupati",200701151812134749&i=,Bliss Hotel,Hotel,Hotel,0.0,Location:4.5/5 | Hospitality:4.4/5 | Facilities:4.3/5 | Cleanliness:4.3/5 | Value for Money:4.2/5 | Food:4.4/5,d7734a4875f5452b85f0487963834fc3,4.5,4.4,4.3,4.3,4.2,4.4
Kollam,Kollam,Hotel,1,0.0,0.0,0,0.0,0.0,Families:|Couples:|Business:|Solo:|Friends:,0.0,"Pallimukku homestay, Kollam ,",201411121442302153&i=,Pallimukku homestay,Hotel,Hotel,0.0,0,486caa91b5e8f10debbbfc000cda4f4d,0.0,0.0,0.0,0.0,0.0,0.0
Opp  Bhimas Deluxe,Tirupati,Hotel,1,13.629596,79.416871,0,0.0,0.0,Families:|Couples:|Business:|Solo:|Friends:,0.0,"150, south mada steet , Opp Bhimas Deluxe",201412261525262113&i=,SRI MEENAKSHI RESIDENCY,Hotel,Hotel,0.0,0,36d48eb04fb3963ba41f436cac016680,0.0,0.0,0.0,0.0,0.0,0.0
Zoo Road,Nainital,Hotel,3,29.382749,79.464581,4.2,120.0,3.8,Families:34|Couples:9|Business:1|Solo:1|Friends:1,138.0,"Near Mall, Tallital , Zoo Road",200703201701435638&i=,Welcome Park,Hotel,Hotel,0.0,Location:4.2/5 | Hospitality:4.1/5 | Facilities:3.7/5 | Cleanliness:3.8/5 | Value for Money:3.7/5 | Food:4/5,5724b861c4c97c875fc01c2dfd6fe7dc,4.2,4.1,3.7,3.8,3.7,4.0
G N B Road,Guwahati,Lodge,1,26.18497,91.747367,3,2.0,3.1,Families:0|Couples:0|Business:0|Solo:1|Friends:0,0.0,"G.N.B. Road, Don Bosco Chariali, Pan Bazar , Don Bosco Chariali",201111211159118063&i=,Star Lodge,Lodge,Lodge,0.0,Location:3/5 | Hospitality:3.5/5 | Facilities:3.5/5 | Cleanliness:2.5/5 | Value for Money:3.5/5 | Food:3/5,b09c7db635c10197facd67463cdcd20d,3.0,3.5,3.5,2.5,3.5,3.0
Nainital,Nainital,Hotel,1,29.382597,79.464409,0,0.0,0.0,Families:0|Couples:0|Business:0|Solo:0|Friends:0,31.0,"Sufolk fall, Zoo Road Tallital , Nainital",201412311629402645&i=,hotel prashant,Hotel,Hotel,0.0,0,93b6211c9e628a5721851506f3faf699,0.0,0.0,0.0,0.0,0.0,0.0
Udaipur,Udaipur,Hotel,1,24.5809,73.6828,5,1.0,4.8,Families:0|Couples:1|Business:0|Solo:0|Friends:0,33.0,"18, Panduwari near Gangaurghat ,",201410131212526449&i=,Harsh Vilas Guest House,Hotel,Hotel,0.0,Location:5/5 | Hospitality:5/5 | Facilities:5/5 | Cleanliness:4/5 | Value for Money:5/5 | Food:5/5,7913492ab76b72d06990ce5f915e7bc7,5.0,5.0,5.0,4.0,5.0,5.0
Nubra Valley,NubraValley,Hotel,1,34.585531,77.47735,0,0.0,0.0,Families:0|Couples:0|Business:0|Solo:0|Friends:0,0.0,"Apple Nubra Chakzot-Hunder , Nubra Valley",201501131648515827&i=,Apple Cottage,Hotel,Hotel,0.0,0,1db9ff6923fdbe606e33d7a4ee51b029,0.0,0.0,0.0,0.0,0.0,0.0
Dharamshala,Dharamshala,Hotel,1,0.0,0.0,0,0.0,0.0,Families:0|Couples:0|Business:0|Solo:0|Friends:0,0.0,"Dharamshala ,",201508181159096807&i=,Holiday Villa,Hotel,Hotel,0.0,0,3a2f7444d99b73aef516f723f06067a6,0.0,0.0,0.0,0.0,0.0,0.0
"Tallital, Nainital",Nainital,Hotel,1,29.37593,79.463853,0,0.0,0.0,Families:0|Couples:0|Business:0|Solo:0|Friends:0,0.0,"Jagdish Sah rooms and cottages , Tallital, Nainital",201501300922542195&i=,MOHINI INN NAINITAL,Hotel,Hotel,0.0,0,05985e0110162656541ae26b081e5894,0.0,0.0,0.0,0.0,0.0,0.0
Madurai,Madurai,Hotel,1,0.0,0.0,0,0.0,0.0,Families:|Couples:|Business:|Solo:|Friends:,0.0,"Sivaganga Road ,",201512261806345390&i=,Royal Garden,Hotel,Hotel,0.0,0,262807e0f355dec1249b7b93771b365b,0.0,0.0,0.0,0.0,0.0,0.0
Kathgodam,Nainital,Hotel,2,29.3957,79.4431,0,0.0,0.0,Families:0|Couples:0|Business:0|Solo:0|Friends:0,7.0,"Armadale Compound, Jahangirabad Palace , Mallital",201304271159319816&i=,Hotel Relax Inn,Hotel,Hotel,0.0,0,0c06c9d1c62e2ec6b51e11a7773c3435,0.0,0.0,0.0,0.0,0.0,0.0
Muvattupuzha,Muvattupuzha,Hotel,1,0.0,0.0,0,0.0,0.0,Families:|Couples:|Business:|Solo:|Friends:,0.0,"Prasad Road, East Kadathy Mrkt , Muvattupuzha",201601181906562213&i=,Wetzler Hotels and Resorts,Hotel,Hotel,0.0,0,c3cf29a605bdc3f09fddc109d9661550,0.0,0.0,0.0,0.0,0.0,0.0
Ambaji,Ambaji,Hotel,2,24.332569,72.847749,0,0.0,0.0,Families:0|Couples:0|Business:0|Solo:0|Friends:0,0.0,"OPP BUS STAND , AMBAJI TEMPLE ROAD",201512252017345666&i=,Hotel Ellora by Sky Stays,Hotel,Hotel,0.0,0,adc5a2d1153094c7ba5eb4f6a87a8227,0.0,0.0,0.0,0.0,0.0,0.0
Dapoli,Dapoli,Hotel,1,17.738318,73.200362,4.8,5.0,4.9,Families:4|Couples:1|Business:0|Solo:0|Friends:0,0.0,"Jaalgaon , Dapoli",201509151503267483&i=,Chira Meadows Eco Resort,Hotel,Hotel,0.0,Location:4.8/5 | Hospitality:5/5 | Facilities:5/5 | Cleanliness:5/5 | Value for Money:5/5 | Food:4.8/5,4268c62d20c2bbe82338c2b2f1cfc308,4.8,5.0,5.0,5.0,5.0,4.8
"New Bus Stand, Kangra",Dharamshala,Hotel,3,32.110225,76.278195,0,0.0,0.0,Families:0|Couples:0|Business:0|Solo:0|Friends:0,0.0,"opp bus stand kangra , kangra highway",201412101416098671&i=,Hotel Sidharth,Hotel,Hotel,0.0,0,a9e63f8126640cdf79078021bd2ad2e2,0.0,0.0,0.0,0.0,0.0,0.0
"Near DwarkadishTemple , Dwarka",Dwarika,Hotel,1,0.0,0.0,0,0.0,0.0,Families:0|Couples:0|Business:0|Solo:0|Friends:0,0.0,"Shivrajsinh Road , , Near DwarkadishTemple , Dwarka",20160127120958389&i=,Hotel Damji,Hotel,Hotel,0.0,0,1623f96d1b913cbaaf16bd9f16846c6e,0.0,0.0,0.0,0.0,0.0,0.0
"NH-2 Etah Road,, Shikohabad",Firozabad,Hotel,1,0.0,0.0,0,0.0,0.0,Families:|Couples:|Business:|Solo:|Friends:,0.0,"NH-2 Etah Road,, Shikohabad , NH-2 Etah Road,, Shikohabad",201512281720294842&i=,Green Park Hotel,Hotel,Hotel,0.0,0,a81188fd30fcb9dcebcca2231de7840c,0.0,0.0,0.0,0.0,0.0,0.0
Pithampur,Indore,Hotel,2,22.630185,75.611115,3.5,2.0,2.2,Families:0|Couples:0|Business:1|Solo:0|Friends:0,1.0,"Sector-3, Sagar Kuti Chaurah, Opp. AVTEC Ltd. Pithampur , Opp. AVTEC Ltd. Pithampur",201109011456467054&i=,Monarch Hotel,Hotel,Hotel,0.0,Location:3.5/5 | Hospitality:3/5 | Facilities:1.5/5 | Cleanliness:2/5 | Value for Money:2/5 | Food:3/5,bc7b7af2a8a80c06b428fd0eeef690e7,3.5,3.0,1.5,2.0,2.0,3.0
"Dharamshala, Himachal Pradesh",Dharamshala,Hotel,1,32.1943,76.3462,0,0.0,0.0,Families:|Couples:|Business:|Solo:|Friends:,0.0,"Yol Road, State Highway 17, , Dharamshala, Himachal Pradesh",201412101349091100&i=,Dharamshala Paradise,Hotel,Hotel,0.0,0,6c4b35ea810504740971817ee9d9fdb1,0.0,0.0,0.0,0.0,0.0,0.0
"Flat No 114, 116, 117, HN Pu",Hassan,Hotel,2,0.0,0.0,0,0.0,0.0,Families:|Couples:|Business:|Solo:|Friends:,7.0,"KIADB Industrial Growth Centre , Flat No 114, 116, 117, HN Pu",201511111310112619&i=,La Flora Pavanputra Resort and Spa,Hotel,Hotel,0.0,0,1e6646e6b45a80c705eb2f2910888db9,0.0,0.0,0.0,0.0,0.0,0.0
Varanasi,Varanasi,Hotel,1,0.0,0.0,0,0.0,0.0,Families:0|Couples:0|Business:0|Solo:0|Friends:0,5.0,"NH-56, Airport Road Near Sammukh Hospital, Babatpur Varanasi ,",201410221556167033&i=,K J Internationa Hotel,Hotel,Hotel,0.0,0,9aea0e75186041b4a6b45eabce585e83,0.0,0.0,0.0,0.0,0.0,0.0
"Fateh Sagar Lake,North Udaipur",Udaipur,Hotel,2,24.590661,73.678077,4.9,101.0,4.5,Families:41|Couples:31|Business:2|Solo:0|Friends:0,376.0,"5,B Alkapuri, Fateh sagar Lake , Fatehsagar",200709191902357239&i=,Hotel Rampratap Palace,Hotel,Hotel,0.0,Location:4.9/5 | Hospitality:4.4/5 | Facilities:4.3/5 | Cleanliness:4.6/5 | Value for Money:4.4/5 | Food:4.5/5,a4a4e31d2b2fb2060e214318fe9a2195,4.9,4.4,4.3,4.6,4.4,4.5
Mahbubnagar,Mahbubnagar,Lodge,1,0.0,0.0,0,0.0,0.0,Families:|Couples:|Business:|Solo:|Friends:,0.0,"House No 2-6-1/3, Khosgi Road, Mahabubnagar Ho, Mahabubnagar ,",201411241335499622&i=,Ganesh Lodge,Lodge,Lodge,0.0,0,8da3e5e6353f292eb5c23a1b807abb55,0.0,0.0,0.0,0.0,0.0,0.0
Gangaur Ghat Marg,Udaipur,Hotel,2,24.580311,73.682573,5,13.0,4.5,Families:8|Couples:2|Business:0|Solo:0|Friends:0,132.0,"339, Ashoka Haveli, Gangaur Ghat Marg , Gangaur Ghat Marg",201409021746153905&i=,Gangaur Palace,Hotel,Hotel,0.0,Location:5/5 | Hospitality:4.6/5 | Facilities:4.2/5 | Cleanliness:4.5/5 | Value for Money:4.6/5 | Food:4.4/5,7c1a39455cb236dec789061436bb5175,5.0,4.6,4.2,4.5,4.6,4.4
mount abu,MountAbu,Hotel,1,0.0,0.0,0,0.0,0.0,Families:|Couples:|Business:|Solo:|Friends:,0.0,"near taxi stand,rotary circul,rajendra marg , mount abu",201603111452425681&i=,hotel ganesh,Hotel,Hotel,0.0,0,5b7213f42e18f7cd857fa1e7e8d7fb0f,0.0,0.0,0.0,0.0,0.0,0.0
Vijay Nagar,Indore,Hotel,2,22.747,75.8962,3.1,31.0,3.2,Families:12|Couples:5|Business:5|Solo:5|Friends:1,7.0,"Plot No - 15, PU4, Scheme 54, Vijaynagar , Vijaynagar",201401021402135774&i=,Hotel Silver Shed,Hotel,Hotel,0.0,Location:3.1/5 | Hospitality:3.3/5 | Facilities:2.9/5 | Cleanliness:3.3/5 | Value for Money:3.3/5 | Food:3.7/5,bc18aa0e30a8820bbb6fc07a21628047,3.1,3.3,2.9,3.3,3.3,3.7
"Ashok Nagar, Main Road",Udaipur,Hotel,4,24.586243,73.710702,0,0.0,0.0,Families:|Couples:|Business:|Solo:|Friends:,0.0,"Lakecity Mall, University Road , Ashok Nagar, Main Road",201511211338075905&i=,Radisson Udaipur,Hotel,Hotel,0.0,0,70bf69a8c4c7d4df70ae4ed49bcf2697,0.0,0.0,0.0,0.0,0.0,0.0
Dharamshala,Dharamshala,Hotel,1,32.232534,76.324266,0,0.0,0.0,Families:|Couples:|Business:|Solo:|Friends:,0.0,"Near Dalai Lama Temple chock ,",201501121242175680&i=,Sai Cottage,Hotel,Hotel,0.0,0,584e03d00142a396e541f4b3eb80b448,0.0,0.0,0.0,0.0,0.0,0.0
uttarkashi,Uttarkashi,Hotel,3,30.879923,78.0846,0,0.0,0.0,Families:|Couples:|Business:|Solo:|Friends:,0.0,"har ki doon road, purola , uttarkashi",201512011245492479&i=,hotel classic view,Hotel,Hotel,0.0,0,e344d7f5d5496f780cd91e54f6bba782,0.0,0.0,0.0,0.0,0.0,0.0
Bhowali,Nainital,Hotel,4,29.385067,79.529405,4.8,5.0,4.4,Families:4|Couples:1|Business:0|Solo:0|Friends:0,28.0,"Shyamkhet, Ramgarh Road,Bhowali , Near Airforce Station,Bhowali",201504281612244939&i=,UNA Comfort Misty Oaks Bhowali,Hotel,Hotel,0.0,Location:4.8/5 | Hospitality:4/5 | Facilities:4.2/5 | Cleanliness:4.8/5 | Value for Money:4/5 | Food:3.8/5,185a1318eacc8d252bb575b21b15ba27,4.8,4.0,4.2,4.8,4.0,3.8
Naddi,Dharamshala,Hotel,2,32.219041,76.323402,4.3,18.0,3.6,Families:8|Couples:4|Business:0|Solo:0|Friends:0,47.0,"Naddi, Upper Dharamshala,Distt. Kangra , Naddi",201101181358217191&i=,Hotel Victoriya Palace,Hotel,Hotel,0.0,Location:4.3/5 | Hospitality:3.9/5 | Facilities:3.2/5 | Cleanliness:3.9/5 | Value for Money:3.8/5 | Food:3.1/5,cf11f0d231361d10f4212b355bd2588e,4.3,3.9,3.2,3.9,3.8,3.1
Airport Road,Udaipur,Hotel,4,24.593977,73.769706,0,0.0,0.0,Families:|Couples:|Business:|Solo:|Friends:,0.0,"Plot No.10, Nr. Maa Gayatri Hospital, Pratap Nagar Airport Road, Udaipur (Raj), India , Maa Gayatri Hospital",201512091433568833&i=,GenX Valley View Udaipur,Hotel,Hotel,0.0,0,a7e78b53d64f7eac1a4dbeb670b887f6,0.0,0.0,0.0,0.0,0.0,0.0
Hanuman Ghat Marg,Udaipur,Hotel,1,24.581022,73.680417,0,0.0,0.0,Families:0|Couples:0|Business:0|Solo:0|Friends:0,114.0,"out side chandpole,hanuman ghat area ,",201410131225402113&i=,Hanuman Ghat Hotel,Hotel,Hotel,0.0,0,a69aa835fbd393052e6f059617affdd6,0.0,0.0,0.0,0.0,0.0,0.0
Gwalior,Gwalior,Hotel,1,26.195151,78.151249,5,2.0,5.0,Families:0|Couples:2|Business:0|Solo:0|Friends:0,0.0,"Hotel Golden Square,Roxypul, kampoo,lashkar,gwalior,kampoo ,",201411131426036295&i=,Hotel Golden Square,Hotel,Hotel,0.0,Location:5/5 | Hospitality:5/5 | Facilities:5/5 | Cleanliness:5/5 | Value for Money:5/5 | Food:5/5,cffa579072bb2f24964a5a3d9663534b,5.0,5.0,5.0,5.0,5.0,5.0
"Udaipur Railway Station,Udaipur Bus Stand,Udaipole",Udaipur,Hotel,2,24.577271,73.700755,4.9,14.0,4.2,Families:4|Couples:3|Business:0|Solo:1|Friends:0,24.0,"Hotel Street, Opp Central Bus Stand, Udaipole ,",201409032046598510&i=,Hotel Savera,Hotel,Hotel,0.0,Location:4.9/5 | Hospitality:4/5 | Facilities:4/5 | Cleanliness:4.4/5 | Value for Money:4/5 | Food:4.2/5,0a020e99342823faf816672ad33f6381,4.9,4.0,4.0,4.4,4.0,4.2
Khandwa,Khandwa,Hotel,1,0.0,0.0,0,0.0,0.0,Families:|Couples:|Business:|Solo:|Friends:,0.0,"Khandwa Road, Khargone ,",201601201320154034&i=,Hotel Yuvraj,Hotel,Hotel,0.0,0,942ae5a2fc3458bf5424374ecfad873a,0.0,0.0,0.0,0.0,0.0,0.0
Annanagar,Madurai,Hotel,1,0.0,0.0,0,0.0,0.0,Families:|Couples:|Business:|Solo:|Friends:,0.0,"Kurudikaran Salai , Annanagar",201503312131596787&i=,anussya apartments,Hotel,Hotel,0.0,0,2a79005a34070a10f75b973232b8658a,0.0,0.0,0.0,0.0,0.0,0.0
"TP Area,Tirupati Railway Station",Tirupati,Hotel,3,13.629096,79.42332,4.1,77.0,3.8,Families:18|Couples:5|Business:1|Solo:1|Friends:2,74.0,"P.No. 177, T.P. Area, Tirupati , T P Area",200701311456563693&i=,Kalyan Residency,Hotel,Hotel,0.0,Location:4.1/5 | Hospitality:3.9/5 | Facilities:3.7/5 | Cleanliness:3.8/5 | Value for Money:3.8/5 | Food:3.2/5,4e6e25e078abcc57fe87d1643da050b1,4.1,3.9,3.7,3.8,3.8,3.2
"Dharamkot,Mcleodganj,Bhagsunag",Dharamshala,Hotel,3,32.219678,76.320933,3.2,23.0,3.2,Families:13|Couples:4|Business:0|Solo:0|Friends:3,22.0,"Bhagsunag, Dharamkot Road, Mcleodganj, Dharamshala. , Bhagsunag, Mcleodganj",201310141955428963&i=,Hotel The Oak Valley,Hotel,Hotel,0.0,Location:3.2/5 | Hospitality:3.5/5 | Facilities:2.8/5 | Cleanliness:3.1/5 | Value for Money:3.5/5 | Food:3.3/5,da39b2c04e1d86a628ace66f31d7bc0b,3.2,3.5,2.8,3.1,3.5,3.3
Mcleodganj Road,Dharamshala,Hotel,1,32.230755,76.312096,0,0.0,0.0,Families:0|Couples:0|Business:0|Solo:0|Friends:0,3.0,"Mcleodganj Road , Mcleodganj Road",201410211143339749&i=,Hotel Stella Fresh,Hotel,Hotel,0.0,0,74bf2f7e959c639cee782c07f96446a1,0.0,0.0,0.0,0.0,0.0,0.0
Sisarma,Udaipur,Hotel,5,24.568297,73.641034,4.7,11.0,4.5,Families:7|Couples:3|Business:0|Solo:0|Friends:0,478.0,"Sisarma,Udaipur ,",200812011730465958&i=,Fateh Garh Resort,Hotel,Hotel,0.0,Location:4.7/5 | Hospitality:4.6/5 | Facilities:4.3/5 | Cleanliness:4.7/5 | Value for Money:4.6/5 | Food:4.2/5,ba7b9e7b9073e745d38122d74045be00,4.7,4.6,4.3,4.7,4.6,4.2
Chikmagalur,Chikmagalur,Hotel,1,13.496349,75.802511,0,0.0,0.0,Families:|Couples:|Business:|Solo:|Friends:,45.0,"Kambihalli Estate, Santaveri P ,",201512151139489445&i=,Halli Berri,Hotel,Hotel,0.0,0,8aa91772a95132581d790df2ecc113d3,0.0,0.0,0.0,0.0,0.0,0.0
Varanasi,Varanasi,Hotel,1,25.318506,83.000785,0,0.0,0.0,Families:0|Couples:0|Business:0|Solo:0|Friends:0,3.0,"Hotel Basant Chetganj, 221001 Varanasi, Near Basant Bar , Varanasi",201410291134175064&i=,Hotel Basant,Hotel,Hotel,0.0,0,b83f2df32d22043339edb0ad65c122d2,0.0,0.0,0.0,0.0,0.0,0.0
"Near St Marry School, Udaipur",Udaipur,Hotel,1,24.532391,73.713259,2,2.0,2.3,Families:1|Couples:1|Business:0|Solo:0|Friends:0,2.0,"Titerdi Jaisamand Road Near , Near St Marry School, Udaipur",201412151954304828&i=,Umaid Villa,Hotel,Hotel,0.0,Location:2/5 | Hospitality:2/5 | Facilities:2/5 | Cleanliness:2.5/5 | Value for Money:2/5 | Food:3.5/5,14a4894cdaecb3933361b2aa4ed68326,2.0,2.0,2.0,2.5,2.0,3.5
"Neelimala viewpoint,Central Udaipur",Udaipur,Hotel,3,24.571694,73.648137,4.5,2.0,3.9,Families:1|Couples:0|Business:0|Solo:0|Friends:0,226.0,"Bujra Road, Kalarohi, Udaipur , Udaipur",200903251545503773&i=,Devra - Mahindra Homestays,Hotel,Hotel,0.0,Location:4.5/5 | Hospitality:5/5 | Facilities:3.5/5 | Cleanliness:5/5 | Value for Money:3/5 | Food:5/5,821f3b650f9d8c6b3450306747f8cd1c,4.5,5.0,3.5,5.0,3.0,5.0
Chikmagalur,Chikmagalur,Hotel,1,13.320756,75.772382,4.6,7.0,3.7,Families:2|Couples:3|Business:0|Solo:0|Friends:0,7.0,"IG CROSS ROAD ,",201409271156574266&i=,Rest Inn,Hotel,Hotel,0.0,Location:4.6/5 | Hospitality:3.6/5 | Facilities:3.3/5 | Cleanliness:4.1/5 | Value for Money:3.6/5 | Food:3.6/5,a67fd1eb4427c37febe50b857a5d7ce0,4.6,3.6,3.3,4.1,3.6,3.6
Dharamshala Distt Kangra,Dharamshala,Hotel,1,32.242844,76.331741,0,0.0,0.0,Families:|Couples:|Business:|Solo:|Friends:,1.0,"VPO Bhagsu Nag Teh , Dharamshala Distt Kangra",201412290957403766&i=,Sangam Hotel and Restaurant,Hotel,Hotel,0.0,0,4158ae5c630d8eea1920a15d07e8aa6b,0.0,0.0,0.0,0.0,0.0,0.0
Near City Palace,Udaipur,Hotel,1,24.578729,73.682821,0,0.0,0.0,Families:0|Couples:0|Business:0|Solo:0|Friends:0,23.0,"91, Nao Ghat Road , Near City Palace",201412161751138924&i=,Shiva Guest House,Hotel,Hotel,0.0,0,4ba56f0c6dda8bc289b60f1bab47d363,0.0,0.0,0.0,0.0,0.0,0.0
"Hanuman Ghat, Bagor Ka Nohra,",Udaipur,Hotel,1,24.580397,73.679513,0,0.0,0.0,Families:|Couples:|Business:|Solo:|Friends:,0.0,"39 OutSide Chandpole , Hanuman Ghat, Bagor Ka Nohra,",20151208161419772&i=,The Royal Lake View Villa,Hotel,Hotel,0.0,0,327e42ae998edd8d0fbabc0040c81a88,0.0,0.0,0.0,0.0,0.0,0.0
"Tirupati APSRTC Bus Stand,Alipri Road",Tirupati,Hotel,1,13.628411,79.425877,4.5,42.0,3.5,Families:11|Couples:7|Business:1|Solo:2|Friends:0,26.0,"Opp Bus Stand Road , Opp Bus Stand Road",201106301804547849&i=,Vikram Hotel,Hotel,Hotel,0.0,Location:4.5/5 | Hospitality:3.6/5 | Facilities:3/5 | Cleanliness:3.5/5 | Value for Money:3.5/5 | Food:3/5,6039c00b64c4b71fc6fb8e4edb3705e4,4.5,3.6,3.0,3.5,3.5,3.0
Hiran Magri,Udaipur,Hotel,2,24.564884,73.72567,0,0.0,0.0,Families:0|Couples:0|Business:0|Solo:0|Friends:0,17.0,"1-KA-15, HIRAN MAGRI, SEC-5, NARAYAN SEVA SANSTHAN ROAD ,",201410301920387826&i=,Meenakshi Hotel,Hotel,Hotel,0.0,0,781f809b2b5591ba80393f93f6cfb3d9,0.0,0.0,0.0,0.0,0.0,0.0
N R Peta,WeekendGetawaysAroundHyderabad,Hotel,3,15.8343,78.0411,5,12.0,4.8,Families:1|Couples:3|Business:0|Solo:0|Friends:0,54.0,"40/839, SBI Circle , opposite childrens park",201507291117039352&i=,DVR Mansion,Hotel,Hotel,0.0,Location:5/5 | Hospitality:4.8/5 | Facilities:4.7/5 | Cleanliness:4.9/5 | Value for Money:4.8/5 | Food:4.7/5,e473533655e0faad5b04a7e36536b6c1,5.0,4.8,4.7,4.9,4.8,4.7
OLD TRUNCK ROAD,Balasore,Hotel,1,21.499561,86.923108,0,0.0,0.0,Families:|Couples:|Business:|Solo:|Friends:,0.0,"Hotel Barjorjis Banjara , OLD TRUNCK ROAD",201512071303442948&i=,BARJORJIS BANJARA,Hotel,Hotel,0.0,0,2520a84b5b3c660a08756172a88bc05e,0.0,0.0,0.0,0.0,0.0,0.0
Muvattupuzha,Muvattupuzha,Hotel,1,0.0,0.0,0,0.0,0.0,Families:|Couples:|Business:|Solo:|Friends:,0.0,"Geojith residency, Muvattupuzha ,",201410311256293176&i=,Geojith residency,Hotel,Hotel,0.0,0,aa4f3406062827e50afeb67928a9a1a1,0.0,0.0,0.0,0.0,0.0,0.0
Renigunta Rd,Tirupati,Hotel,1,13.634343,79.511238,0,0.0,0.0,Families:|Couples:|Business:|Solo:|Friends:,0.0,"D.No. 17-28-23/1, Opp. RTO checkpost,Renigunta, Bypass Road, Tirupati , Renigunta",201512211951417783&i=,Hotel K R Bhavan,Hotel,Hotel,0.0,0,943514ee0e9fc0799faac2cfe65efc95,0.0,0.0,0.0,0.0,0.0,0.0
Renigunta Rd,Tirupati,Hotel,3,13.627527,79.429031,4.7,184.0,4.5,Families:107|Couples:23|Business:7|Solo:7|Friends:3,203.0,"Near Railway Flyover,Next to Reliance Mart, Renigunta Road , Renigunta Road, Tirupati",201210190921221762&i=,Minerva Grand,Hotel,Hotel,0.0,Location:4.7/5 | Hospitality:4.5/5 | Facilities:4.3/5 | Cleanliness:4.6/5 | Value for Money:4.5/5 | Food:4.5/5,204dfc7c76bfbb6dc38fd09e22f43504,4.7,4.5,4.3,4.6,4.5,4.5
Udaipur,Udaipur,Hotel,1,24.5885,73.7055,0,0.0,0.0,Families:0|Couples:0|Business:0|Solo:0|Friends:0,38.0,"Boheda House, Kalaji Goraji, , Udaipur",201502021643234568&i=,Sun Heritage Home,Hotel,Hotel,0.0,0,150f5a9cff42190d89d793aeab905517,0.0,0.0,0.0,0.0,0.0,0.0
CHIKMAGALUR,Chikmagalur,Hotel,1,0.0,0.0,0,0.0,0.0,Families:|Couples:|Business:|Solo:|Friends:,0.0,"AVATHI , CHIKMAGALUR",20151208121555922&i=,Avathi Homestay,Hotel,Hotel,0.0,0,a7c61761f58b8d1aa94462dc3840745f,0.0,0.0,0.0,0.0,0.0,0.0
"Gangour Ghat Marg,Lal Ghat,West Udaipur",Udaipur,Hotel,1,24.580202,73.683628,4.8,66.0,4.7,Families:12|Couples:4|Business:0|Solo:1|Friends:0,639.0,"74 Gangour Ghat Marg , Gangour Ghat Marg",201103281138216370&i=,Bhanwar Vilas Guest House,Hotel,Hotel,0.0,Location:4.8/5 | Hospitality:4.8/5 | Facilities:4.5/5 | Cleanliness:4.7/5 | Value for Money:4.7/5 | Food:4.4/5,e80258e86dc47ec872e52fee4e88b96d,4.8,4.8,4.5,4.7,4.7,4.4
Cantt Road,Dharamshala,Hotel,1,32.22671,76.316985,0,0.0,0.0,Families:0|Couples:0|Business:0|Solo:0|Friends:0,4.0,"Cantt Road , District Kangra",20111122132300405&i=,Hotel Sagar,Hotel,Hotel,0.0,0,e0a7d232d07c1b4462a48dfcce2c190d,0.0,0.0,0.0,0.0,0.0,0.0
Ayurvedic College,Udaipur,Hotel,3,24.573236,73.693351,0,0.0,0.0,Families:0|Couples:0|Business:0|Solo:0|Friends:0,75.0,"II Ambavgarh Near, Ayurvedic College , Ayurvedic College",201212081239172766&i=,Kurabar Kothi,Hotel,Hotel,0.0,0,cc3345291377ac0bf275d033771e42c9,0.0,0.0,0.0,0.0,0.0,0.0
Paharganj,New Delhi And NCR,Hotel,2,28.643318,77.210509,0,0.0,0.0,Family:0|Couple:0|Solo:0|Friends:0|Business:0,1.0,"2261-64, Rajguru Road, Chuna Mandi, Paharganj paharganj",201409281300052458,Roxy Deluxe,Hotel,Hotel,0.0,0,1d0560b0486b11289c90428a6856bf49,0.0,0.0,0.0,0.0,0.0,0.0
Riverland,Allepey,Houseboat,3,9.486718,76.338415,0,0.0,0.0,0,0.0,palluthuruthy,201512281800566379,Riverland Leisures Houseboat,Houseboat,Houseboat,0.0,0,0436f30177cba6b5800a6264f70ac7f5,0.0,0.0,0.0,0.0,0.0,0.0
Noida,New Delhi And NCR,Hotel,3,28.462186,76.918124,0,0.0,0.0,0,27.0,"Behind Maharishi Vidya Mandir School , Near Sultanpur Lake Noida",201409191305555932,Golden Creepers Farm Holidays,Hotel,Hotel,0.0,0,df0db1f12902a961376c9c4237df5c4b,0.0,0.0,0.0,0.0,0.0,0.0
New Delhi And NCR,New Delhi And NCR,Hotel,5,28.52863,77.272515,Location:4.1,30.0,4.7,Family:2|Couple:6|Solo:19|Friends:1|Business:2,599.0,"Plot No,1, Community Centre Okhla Phase-1,South Delhi",201109301501008028,Crowne Plaza Okhla,Hotel,Hotel,0.0,Location:4.1/5 | Hospitality:4.7/5 | Facilities:4.8/5 | Cleanliness:2.9/5 | Value for Money:4.7/5 | Food:3.6/5,c35e637c72af9531f5971169b55d035c,4.1,4.7,4.8,2.9,4.7,3.6
South Goa,Goa,Hotel,2,15.271716,73.958361,Location:4.3,28.0,4.3,Family:7|Couple:6|Solo:7|Friends:1|Business:0,33.0,"Rajadhyax Tower, Behind Bank of India, Near Margao Municipal Council Cine Lata Road Margao",200910061531398543,Hotel Om Shiv,Hotel,Hotel,0.0,Location:4.3/5 | Hospitality:4.4/5 | Facilities:4.1/5 | Cleanliness:4.4/5 | Value for Money:4.3/5 | Food:2.9/5,afa2b33d49d47b83026b94d54449192c,4.3,4.4,4.1,4.4,4.3,2.9
The Agra Fort,Agra,Hotel,5,27.167792,78.048928,Location:5.0,2.0,4.8,Family:0|Couple:0|Solo:0|Friends:0|Business:0,2101.0,Taj East Gate Road 0.6 km from Taj Mahal,200701171157501278,The Oberoi Amarvilas,Hotel,Hotel,0.0,Location:5.0/5 | Hospitality:0.0/5 | Facilities:5.0/5 | Cleanliness:4.5/5 | Value for Money:4.5/5 | Food:0.0/5,11a2524476fbeb0ae8b52790357de1c4,5.0,0.0,5.0,4.5,4.5,0.0
Anand,Anand,Hotel,1,22.559179,72.973003,0,0.0,0.0,0,0.0,"Kanewal Lake, Kha,khsar Village, Taluka Tarapur, Dist Anand Gujarat-388 001",201411281050056039,Safar Retreat,Hotel,Hotel,0.0,0,2cb5f00e852d69a7ab794a2f659faa55,0.0,0.0,0.0,0.0,0.0,0.0
New Delhi And NCR,New Delhi And NCR,Hotel,2,28.565,77.221834,0,0.0,0.0,Family:0|Couple:0|Solo:0|Friends:0|Business:0,0.0,C- 10 2nd Floor South Extension Part 2,201411041951226762,Sun Villa  South Ext 2,Hotel,Hotel,0.0,0,a66eb2ffec17fb4bc46f1c72367e4f9a,0.0,0.0,0.0,0.0,0.0,0.0
Vythiri,Wayanad,India,1,11.542295849727507,76.0404783336212,0,0.0,0.0,0,0.0,Old Vythiri Wayanad,201606081021011365,Girassol Serviced Villa,Hotel,Hotel,0.0,0,ba93758546f361c7daa2ba7cca6f06a0,0.0,0.0,0.0,0.0,0.0,0.0
Agra,Agra,Hotel,5,27.156385,78.059543,Location:4.4,16.0,4.7,Family:2|Couple:8|Solo:4|Friends:1|Business:1,740.0,"Taj Nagri, Phase 2, Fatehabad Road Agra",201412311201233651,Courtyard by Marriott Agra,Hotel,Hotel,0.0,Location:4.4/5 | Hospitality:4.7/5 | Facilities:4.7/5 | Cleanliness:4.9/5 | Value for Money:4.7/5 | Food:4.6/5,80f5be125f474af5be9824ec09ebf1e8,4.4,4.7,4.7,4.9,4.7,4.6
Goa,Goa,Hotel,3,0.0,0.0,0,0.0,0.0,0,0.0,RR ORG (Rievera hermitage double tree by Hilton Arpora - Baga) RR ORG (Rievera hermitage double tree by Hilton Arpora - Baga) North Goa,201212081158324662,Studio Service Apartments - Arpora,Hotel,Hotel,0.0,0,4953f7d9c9a00e8246fcd58f0cf7d350,0.0,0.0,0.0,0.0,0.0,0.0
Diggi Bazaar,Ajmer,Hotel,3,26.453897,74.633067,Location:4.6,172.0,4.6,Family:94|Couple:41|Solo:24|Friends:5|Business:0,19.0,Plaza Cinema Road Ajmer,201410071529473828,Hotel Plaza Inn,Hotel,Hotel,0.0,Location:4.6/5 | Hospitality:4.6/5 | Facilities:4.5/5 | Cleanliness:4.7/5 | Value for Money:4.6/5 | Food:2.8/5,adb08abc4ae053458022859e7ea1af5f,4.6,4.6,4.5,4.7,4.6,2.8
Jaipur Sindhi Camp Bus Stand,Jaipur,Hotel,1,26.922287,75.796788,Location:2.0,2.0,2.4,Family:0|Couple:1|Solo:1|Friends:0|Business:0,0.0,"11, Hathi Babu Ka Hatta, Opp Polovictory Cinema, St Road, Jaipur",201409081830576503,Hotel Aishwarya,Hotel,Hotel,0.0,Location:2.0/5 | Hospitality:2.5/5 | Facilities:2.5/5 | Cleanliness:0.0/5 | Value for Money:2.5/5 | Food:0.0/5,3d80b78461a7ef1252b6215bf38e0e3e,2.0,2.5,2.5,0.0,2.5,0.0
Veraval,Veraval,Hotel,1,0.0,0.0,0,0.0,0.0,0,0.0,2ND AKAR COMPLEX ST ROAD VERAVAL,201512081716314463,HOTEL KAVERI,Hotel,Hotel,0.0,0,c65818c76d28a349806f7d0ef7533ebc,0.0,0.0,0.0,0.0,0.0,0.0
DLF Phase 2,New Delhi And NCR,Hotel,2,28.490658,77.084398,Location:5.0,1.0,4.5,Family:0|Couple:0|Solo:1|Friends:0|Business:0,9.0,M 11A/1 Dlf Phase II Behind DLF Square Buliding,201411261337106529,Hotel Smart Inn,Hotel,Hotel,0.0,Location:5.0/5 | Hospitality:4.0/5 | Facilities:4.0/5 | Cleanliness:5.0/5 | Value for Money:4.0/5 | Food:0.0/5,c1a369eb95af36cb23b2de2a96ae56a4,5.0,4.0,4.0,5.0,4.0,0.0
Indira Gandhi International Airport,New Delhi And NCR,Hotel,3,28.545609,77.123047,0,0.0,0.0,0,0.0,"L- 322, Mahipalpur, Near to IGI Airport, NH 8, Before Hotel Radission, New Delhi, Delhi 110037 NH-08 NEW DELHI",201511301530068228,Hotel Saptagiri,Hotel,Hotel,0.0,0,fd2044959f70856568c3d2503d890d5c,0.0,0.0,0.0,0.0,0.0,0.0
Charai,Mumbai,Hotel,3,19.198414,72.974173,0,0.0,0.0,Family:0|Couple:0|Solo:0|Friends:0|Business:0,2.0,"Edulji Road,Opp MTNL Exchange, Charai,Thane",201508201737182754,Hotel Divya International,Hotel,Hotel,0.0,0,d78fae90ef2e1b5c2dfd547c61763a25,0.0,0.0,0.0,0.0,0.0,0.0
Rajaji Nagar,Bangalore,Hotel,1,12.988585,77.547767,0,0.0,0.0,0,0.0,"NO 79, 1st stage, 5th phase, west of chord thammaiaa road ,shivanagar",201603071508338160,Sunil Residency,Hotel,Hotel,0.0,0,fcb90f8951baef53c8e56f61aeeca9fc,0.0,0.0,0.0,0.0,0.0,0.0
Goa,Goa,Hotel,1,0.0,0.0,0,0.0,0.0,Family:0|Couple:0|Solo:0|Friends:0|Business:0,0.0,"Villa Goa Raj , Behind St Joseph School Arpora, Parra , Goa",201409031419274461,Diakon Holidays,Hotel,Hotel,0.0,0,2c57c7604510c1a2ab519a84a31cf030,0.0,0.0,0.0,0.0,0.0,0.0
Benaulim,Goa,Apartment,1,15.25579,73.923877,0,0.0,0.0,0,0.0,"Lotus Hermitage Resort, Benaulim Beach, Benaulim",201601171456455673,TripThrill Lotus Hermitage Apartment,Apartment,Apartment,0.0,0,248ec7a4718e571cdaa54009140e7fdc,0.0,0.0,0.0,0.0,0.0,0.0
Agra,Agra,Homestay,1,27.158808,78.001229,Location:5.0,1.0,5.0,Family:1|Couple:0|Solo:0|Friends:0|Business:0,36.0,"144, SARDAR AWTAR SINGH ROAD AGRA CANTT, AGRA-282001",201411131418152068,Awtar Mansion,Homestay,Homestay,0.0,Location:5.0/5 | Hospitality:5.0/5 | Facilities:5.0/5 | Cleanliness:5.0/5 | Value for Money:5.0/5 | Food:5.0/5,0b12dd01c6483e2b0e791a707a9942aa,5.0,5.0,5.0,5.0,5.0,5.0
Goa,Goa,Hotel,1,0.0,0.0,0,0.0,0.0,0,0.0,"H/No65/9, Escrivao Vaddo Calangute",201512291405338489,JOHNS Guest House,Hotel,Hotel,0.0,0,36c3efe2a8223e1d8fb4797f39583fe1,0.0,0.0,0.0,0.0,0.0,0.0
Karol Bagh,New Delhi And NCR,Hotel,1,0.0,0.0,0,0.0,0.0,Family:0|Couple:0|Solo:0|Friends:0|Business:0,24.0,"8A/29, W E A, Channa Market, Karol Bagh",201209041437527306,Maan K,Hotel,Hotel,0.0,0,cd6c3db5accb3a5ddc4897c3d8981c29,0.0,0.0,0.0,0.0,0.0,0.0
Beach Road,Allepey,Hotel,2,9.490809,76.323597,Location:4.3,33.0,3.6,Family:20|Couple:9|Solo:1|Friends:0|Business:0,46.0,"Rubber factory junction, Bazaar P.O, Civil Station ward Civil Station ward",201211291806212389,Seaside Residency,Hotel,Hotel,0.0,Location:4.3/5 | Hospitality:3.5/5 | Facilities:3.2/5 | Cleanliness:2.2/5 | Value for Money:3.5/5 | Food:2.3/5,a33b3fde2c4ef8c6edf2c36304b708c5,4.3,3.5,3.2,2.2,3.5,2.3
Yeshwanthpur,Bangalore,Hotel,1,13.028614,77.544948,0,0.0,0.0,Family:0|Couple:0|Solo:0|Friends:0|Business:0,0.0,"8,3rd Cross, Sri Raghavendra Off Tumkur Road,Near RNS Motor",201509071356089074,Hotel Venkat Presidency,Hotel,Hotel,0.0,0,e3109752cbc9068fa7f717b5b78d9db1,0.0,0.0,0.0,0.0,0.0,0.0
